{
  "version": 0.6,
  "generator": "Overpass API 0.7.60.6 e2dc3e5b",
  "osm3s": {
    "timestamp_osm_base": "2023-11-15T16:44:30Z",
    "timestamp_areas_base": "2023-11-15T04:03:58Z",
    "copyright": "The data included in this document is from www.openstreetmap.org. The data is made available under ODbL."
  },
  "elements": [

{
  "type": "node",
  "id": 84517858,
  "lat": 47.1889602,
  "lon": 38.5096997,
  "tags": {
    "amenity": "police",
    "name": "Пост ДПС"
  }
},
{
  "type": "node",
  "id": 182653715,
  "lat": 56.4954681,
  "lon": 85.1701743,
  "tags": {
    "addr:country": "RU",
    "addr:district": "Томский район",
    "addr:region": "Томская область",
    "amenity": "police",
    "name": "Корнилово",
    "name:en": "Kornilovo"
  }
},
{
  "type": "node",
  "id": 232782723,
  "lat": 57.8896837,
  "lon": 35.0011171,
  "tags": {
    "amenity": "police",
    "name": "ГАИ ГИБДД"
  }
},
{
  "type": "node",
  "id": 245024789,
  "lat": 57.8418020,
  "lon": 35.0196927,
  "tags": {
    "amenity": "police",
    "name": "пост ГАИ"
  }
},
{
  "type": "node",
  "id": 249455334,
  "lat": 55.6300583,
  "lon": 37.7499306,
  "tags": {
    "amenity": "police",
    "name": "ОВД Зябликово"
  }
},
{
  "type": "node",
  "id": 249455849,
  "lat": 55.6352474,
  "lon": 37.7711909,
  "tags": {
    "amenity": "police",
    "name": "ОВД Братеево"
  }
},
{
  "type": "node",
  "id": 249652868,
  "lat": 53.2408361,
  "lon": 50.2764246,
  "tags": {
    "amenity": "police",
    "created_by": "JOSM",
    "name": "МРЭО"
  }
},
{
  "type": "node",
  "id": 266260978,
  "lat": 55.9238666,
  "lon": 37.5195880,
  "tags": {
    "amenity": "police",
    "name": "ПТО"
  }
},
{
  "type": "node",
  "id": 266260979,
  "lat": 55.9392821,
  "lon": 37.5129366,
  "tags": {
    "amenity": "police",
    "name": "ОВД",
    "official_name": "ОВД по городскому округу Долгопрудный"
  }
},
{
  "type": "node",
  "id": 286133977,
  "lat": 58.8935259,
  "lon": 34.5440119,
  "tags": {
    "amenity": "police",
    "name": "РОВД"
  }
},
{
  "type": "node",
  "id": 286849079,
  "lat": 51.8473685,
  "lon": 39.2146259,
  "tags": {
    "amenity": "police",
    "name": "Пост ДПС"
  }
},
{
  "type": "node",
  "id": 287902859,
  "lat": 58.5259433,
  "lon": 31.2747828,
  "tags": {
    "amenity": "police",
    "name": "УВД Новгородской области"
  }
},
{
  "type": "node",
  "id": 288404369,
  "lat": 58.5335452,
  "lon": 31.2646504,
  "tags": {
    "amenity": "police",
    "name": "Отдел полиции № 2",
    "operator": "Полиция России",
    "operator:en": "Police of Russia",
    "operator:wikidata": "Q1188211"
  }
},
{
  "type": "node",
  "id": 288857037,
  "lat": 54.0967657,
  "lon": 84.8447572,
  "tags": {
    "amenity": "police",
    "fee": "yes"
  }
},
{
  "type": "node",
  "id": 289427475,
  "lat": 54.7575510,
  "lon": 56.0171745,
  "tags": {
    "amenity": "police"
  }
},
{
  "type": "node",
  "id": 298952918,
  "lat": 45.2382690,
  "lon": 38.9703947,
  "tags": {
    "amenity": "police"
  }
},
{
  "type": "node",
  "id": 299021494,
  "lat": 56.7432659,
  "lon": 37.2354313,
  "tags": {
    "amenity": "police",
    "name": "пост ДПС"
  }
},
{
  "type": "node",
  "id": 299054128,
  "lat": 56.7042597,
  "lon": 37.1562470,
  "tags": {
    "amenity": "police",
    "name": "ДПС",
    "wheelchair": "no"
  }
},
{
  "type": "node",
  "id": 308233369,
  "lat": 55.7162911,
  "lon": 37.4588661,
  "tags": {
    "addr:city": "Москва",
    "addr:housenumber": "5 к1",
    "addr:street": "Инициативная улица",
    "amenity": "police",
    "name": "Участковый пункт полиции № 29",
    "operator": "Полиция России",
    "operator:en": "Police of Russia",
    "operator:wikidata": "Q1188211",
    "wheelchair": "no"
  }
},
{
  "type": "node",
  "id": 314817058,
  "lat": 56.1260443,
  "lon": 37.0751969,
  "tags": {
    "amenity": "police",
    "name": "1 СБ 1 СП ДПС ГУВД МО"
  }
},
{
  "type": "node",
  "id": 315725264,
  "lat": 55.6087270,
  "lon": 38.0930027,
  "tags": {
    "amenity": "police",
    "contact:phone": "+7 495 5669001",
    "contact:website": "http://www.gibdd.ru",
    "name": "МРЭО Жуковского отдела ГИБДД УВД МО",
    "opening_hours": "Tu 08:00-14:00,15:00-20:00; We-Fr 08:00-14:00,15:00-18:00; Sa 08:00-14:00,15:00-17:00"
  }
},
{
  "type": "node",
  "id": 316773195,
  "lat": 55.8851170,
  "lon": 37.5963117,
  "tags": {
    "amenity": "police",
    "name": "Общественный пункт охраны порядка"
  }
},
{
  "type": "node",
  "id": 318432252,
  "lat": 56.7733061,
  "lon": 53.1613689,
  "tags": {
    "amenity": "police"
  }
},
{
  "type": "node",
  "id": 321262185,
  "lat": 59.3626092,
  "lon": 28.2077180,
  "tags": {
    "amenity": "police"
  }
},
{
  "type": "node",
  "id": 330948222,
  "lat": 57.7110417,
  "lon": 54.5873509,
  "tags": {
    "amenity": "police"
  }
},
{
  "type": "node",
  "id": 332585513,
  "lat": 53.5135930,
  "lon": 49.6072838,
  "tags": {
    "amenity": "police",
    "name": "ДПС"
  }
},
{
  "type": "node",
  "id": 343484145,
  "lat": 58.8408472,
  "lon": 57.5523572,
  "tags": {
    "amenity": "police",
    "name": "Опорный пункт"
  }
},
{
  "type": "node",
  "id": 346999124,
  "lat": 44.0132935,
  "lon": 39.1664751,
  "tags": {
    "amenity": "police",
    "description": "Пост охраны",
    "name": "Пост охраны",
    "source": "knowledge"
  }
},
{
  "type": "node",
  "id": 346999127,
  "lat": 44.0150669,
  "lon": 39.1642209,
  "tags": {
    "amenity": "police",
    "description": "Пост охраны",
    "name": "Пост охраны",
    "source": "knowledge"
  }
},
{
  "type": "node",
  "id": 347407465,
  "lat": 46.1997309,
  "lon": 41.1251091,
  "tags": {
    "amenity": "police",
    "name": "Пост ДПС"
  }
},
{
  "type": "node",
  "id": 349076698,
  "lat": 45.4099616,
  "lon": 40.5466640,
  "tags": {
    "amenity": "police",
    "name": "ДПС"
  }
},
{
  "type": "node",
  "id": 353100474,
  "lat": 58.5659760,
  "lon": 57.8496445,
  "tags": {
    "amenity": "police",
    "contact:phone": "+7 34250 21748",
    "name": "Отделение полиции",
    "official_name": "Межмуниципальный отдел МВД России \"Чусовской\", отделение полиции с дислокацией в г. Гремячинске"
  }
},
{
  "type": "node",
  "id": 355816783,
  "lat": 58.3947960,
  "lon": 31.8881932,
  "tags": {
    "amenity": "police",
    "name": "Пост ДПС",
    "police": "traffic_police"
  }
},
{
  "type": "node",
  "id": 357112811,
  "lat": 56.5600294,
  "lon": 47.8550398,
  "tags": {
    "amenity": "police",
    "name": "Пост ДПС"
  }
},
{
  "type": "node",
  "id": 357186928,
  "lat": 55.5654890,
  "lon": 47.4034520,
  "tags": {
    "amenity": "police",
    "name": "Пост ДПС"
  }
},
{
  "type": "node",
  "id": 357216033,
  "lat": 54.8904213,
  "lon": 47.5351995,
  "tags": {
    "amenity": "police",
    "name": "Пост ДПС"
  }
},
{
  "type": "node",
  "id": 357804131,
  "lat": 51.5685691,
  "lon": 46.2596559,
  "tags": {
    "amenity": "police",
    "name": "ДПС"
  }
},
{
  "type": "node",
  "id": 357804223,
  "lat": 51.6030343,
  "lon": 46.1941385,
  "tags": {
    "amenity": "police",
    "name": "ДПС"
  }
},
{
  "type": "node",
  "id": 360981639,
  "lat": 51.5881314,
  "lon": 45.9387064,
  "tags": {
    "addr:housenumber": "11",
    "addr:street": "улица Зои Космодемьянской",
    "amenity": "police",
    "name": "Участковый пункт милиции №38"
  }
},
{
  "type": "node",
  "id": 360981948,
  "lat": 51.5895033,
  "lon": 45.9137912,
  "tags": {
    "amenity": "police",
    "name": "Разрешительная система Ленинского района"
  }
},
{
  "type": "node",
  "id": 366581751,
  "lat": 57.7623960,
  "lon": 33.9494893,
  "tags": {
    "amenity": "police",
    "name": "ДПС"
  }
},
{
  "type": "node",
  "id": 366711370,
  "lat": 55.6686427,
  "lon": 37.6117485,
  "tags": {
    "amenity": "police",
    "phone": "+7 499 6131059"
  }
},
{
  "type": "node",
  "id": 370227255,
  "lat": 53.4320288,
  "lon": 58.9886273,
  "tags": {
    "addr:city": "Магнитогорск",
    "addr:housenumber": "9",
    "addr:postcode": "455000",
    "addr:street": "улица Строителей",
    "amenity": "police",
    "name": "УМВД по г. Магнитогорску",
    "operator": "Полиция России",
    "operator:en": "Police of Russia",
    "operator:wikidata": "Q1188211"
  }
},
{
  "type": "node",
  "id": 370227415,
  "lat": 53.4002910,
  "lon": 58.9608420,
  "tags": {
    "addr:city": "Магнитогорск",
    "addr:housenumber": "82",
    "addr:postcode": "455030",
    "addr:street": "Советская улица",
    "amenity": "police",
    "name": "Отдел полиции «Правобережный»",
    "operator": "Полиция России",
    "operator:en": "Police of Russia",
    "operator:wikidata": "Q1188211",
    "phone": "+7 3519 212146"
  }
},
{
  "type": "node",
  "id": 370228060,
  "lat": 53.3615680,
  "lon": 58.9896010,
  "tags": {
    "addr:city": "Магнитогорск",
    "addr:housenumber": "164",
    "addr:postcode": "455021",
    "addr:street": "проспект Ленина",
    "amenity": "police",
    "description": "ГИБДД РУВД Орджоникидзевского района",
    "name": "Орджоникидзевский ГИБДД",
    "phone": "+7 3519 313011"
  }
},
{
  "type": "node",
  "id": 370228294,
  "lat": 53.4288845,
  "lon": 58.9605439,
  "tags": {
    "addr:city": "Магнитогорск",
    "addr:housenumber": "4",
    "addr:postcode": "455000",
    "addr:street": "Советская улица",
    "amenity": "police",
    "name": "МРЭО ГИБДД"
  }
},
{
  "type": "node",
  "id": 370228496,
  "lat": 53.3308505,
  "lon": 58.5161917,
  "tags": {
    "addr:city": "Аскарово",
    "amenity": "police",
    "name": "ОМВД по Абзелиловскому району"
  }
},
{
  "type": "node",
  "id": 370473519,
  "lat": 52.0069588,
  "lon": 113.5628763,
  "tags": {
    "amenity": "police",
    "name": "ГИБДД"
  }
},
{
  "type": "node",
  "id": 370765830,
  "lat": 58.0472410,
  "lon": 38.8238146,
  "tags": {
    "amenity": "police",
    "name": "УВД"
  }
},
{
  "type": "node",
  "id": 373087560,
  "lat": 52.0312923,
  "lon": 113.6640038,
  "tags": {
    "amenity": "police",
    "name": "Пост ДПС"
  }
},
{
  "type": "node",
  "id": 383778080,
  "lat": 46.7595150,
  "lon": 39.6613917,
  "tags": {
    "amenity": "police",
    "name": "Пост ДПС \"Цукерова балка\""
  }
},
{
  "type": "node",
  "id": 383778083,
  "lat": 46.7595279,
  "lon": 39.6609102,
  "tags": {
    "amenity": "police",
    "name": "Пост ДПС \"Цукерова балка\""
  }
},
{
  "type": "node",
  "id": 383857702,
  "lat": 51.8203953,
  "lon": 36.1242753,
  "tags": {
    "amenity": "police",
    "name": "Пост ДПС"
  }
},
{
  "type": "node",
  "id": 390630619,
  "lat": 55.3425689,
  "lon": 86.0019675,
  "tags": {
    "amenity": "police"
  }
},
{
  "type": "node",
  "id": 392530264,
  "lat": 52.3212757,
  "lon": 35.3759042,
  "tags": {
    "amenity": "police",
    "name": "пост ДПС"
  }
},
{
  "type": "node",
  "id": 392895143,
  "lat": 49.3837020,
  "lon": 40.5868185,
  "tags": {
    "amenity": "police",
    "name": "ДПС"
  }
},
{
  "type": "node",
  "id": 392895248,
  "lat": 49.9157708,
  "lon": 40.5199405,
  "tags": {
    "amenity": "police"
  }
},
{
  "type": "node",
  "id": 392895373,
  "lat": 50.4507645,
  "lon": 40.1386038,
  "tags": {
    "amenity": "police",
    "name": "Пост ГАИ"
  }
},
{
  "type": "node",
  "id": 398944687,
  "lat": 50.5362526,
  "lon": 36.4704497,
  "tags": {
    "amenity": "police",
    "name": "Пост ДПС",
    "operator": "ОГ ИБДД УМВД РФ по г. Белгороду"
  }
},
{
  "type": "node",
  "id": 398946159,
  "lat": 50.7297544,
  "lon": 36.5297082,
  "tags": {
    "amenity": "police",
    "name": "Пост ДПС"
  }
},
{
  "type": "node",
  "id": 398952115,
  "lat": 51.5819055,
  "lon": 36.0816314,
  "tags": {
    "amenity": "police",
    "name": "Пост ДПС"
  }
},
{
  "type": "node",
  "id": 401359450,
  "lat": 48.9195170,
  "lon": 44.6188956,
  "tags": {
    "amenity": "police",
    "name": "Пост ДПС"
  }
},
{
  "type": "node",
  "id": 401913937,
  "lat": 54.0216533,
  "lon": 38.0105256,
  "tags": {
    "amenity": "police",
    "name": "Пост ДПС"
  }
},
{
  "type": "node",
  "id": 402330529,
  "lat": 53.0930746,
  "lon": 38.1574822,
  "tags": {
    "amenity": "police",
    "name": "пост ДПС"
  }
},
{
  "type": "node",
  "id": 402330592,
  "lat": 52.6152893,
  "lon": 38.4606832,
  "tags": {
    "amenity": "police",
    "name": "Технический осмотр"
  }
},
{
  "type": "node",
  "id": 402523682,
  "lat": 51.6378841,
  "lon": 39.3274711,
  "tags": {
    "amenity": "police",
    "name": "Пост ДПС"
  }
},
{
  "type": "node",
  "id": 402576724,
  "lat": 51.4900482,
  "lon": 40.3932131,
  "tags": {
    "amenity": "police",
    "name": "Пост ДПС"
  }
},
{
  "type": "node",
  "id": 402678084,
  "lat": 51.4287173,
  "lon": 41.9578419,
  "tags": {
    "amenity": "police",
    "name": "Пост ДПС"
  }
},
{
  "type": "node",
  "id": 402707770,
  "lat": 50.9519907,
  "lon": 42.3245664,
  "tags": {
    "amenity": "police",
    "name": "пост ДПС"
  }
},
{
  "type": "node",
  "id": 410136909,
  "lat": 52.0086689,
  "lon": 113.5562425,
  "tags": {
    "amenity": "police",
    "name": "МРЭО ГИБДД"
  }
},
{
  "type": "node",
  "id": 410604561,
  "lat": 59.1633731,
  "lon": 61.8368061,
  "tags": {
    "amenity": "police",
    "name": "Отделение полиции № 18",
    "ref": "18"
  }
},
{
  "type": "node",
  "id": 413045119,
  "lat": 52.5073717,
  "lon": 39.6380164,
  "tags": {
    "amenity": "police",
    "name": "Пост ГАИ"
  }
},
{
  "type": "node",
  "id": 413735078,
  "lat": 52.0604183,
  "lon": 113.4876107,
  "tags": {
    "amenity": "police",
    "name": "Северный ОВД"
  }
},
{
  "type": "node",
  "id": 413943301,
  "lat": 57.8846437,
  "lon": 34.0540099,
  "tags": {
    "amenity": "police",
    "name": "Вневедомственная охрана"
  }
},
{
  "type": "node",
  "id": 413944045,
  "lat": 57.8814184,
  "lon": 34.0384472,
  "tags": {
    "amenity": "police",
    "name": "ГОВД"
  }
},
{
  "type": "node",
  "id": 413944453,
  "lat": 57.8994022,
  "lon": 34.0449208,
  "tags": {
    "amenity": "police",
    "name": "МРЭО"
  }
},
{
  "type": "node",
  "id": 413951742,
  "lat": 57.8860810,
  "lon": 34.0530470,
  "tags": {
    "amenity": "police",
    "name": "ЧОП Берегиня"
  }
},
{
  "type": "node",
  "id": 415907274,
  "lat": 57.8842500,
  "lon": 34.0627946,
  "tags": {
    "amenity": "police",
    "name": "ЛОВД"
  }
},
{
  "type": "node",
  "id": 417611568,
  "lat": 57.7798393,
  "lon": 38.4324305,
  "tags": {
    "amenity": "police",
    "name": "ГИБДД"
  }
},
{
  "type": "node",
  "id": 417611569,
  "lat": 57.7832768,
  "lon": 38.4524207,
  "tags": {
    "amenity": "police",
    "name": "РОВД"
  }
},
{
  "type": "node",
  "id": 417785193,
  "lat": 53.7862317,
  "lon": 87.1240551,
  "tags": {
    "amenity": "police"
  }
},
{
  "type": "node",
  "id": 417805681,
  "lat": 54.1533658,
  "lon": 37.4975662,
  "tags": {
    "amenity": "police",
    "name": "пост ДПС"
  }
},
{
  "type": "node",
  "id": 418201498,
  "lat": 43.9800736,
  "lon": 43.1323670,
  "tags": {
    "amenity": "police",
    "name": "ДПС"
  }
},
{
  "type": "node",
  "id": 418610212,
  "lat": 53.3449920,
  "lon": 83.7176418,
  "tags": {
    "amenity": "police",
    "name": "Пункт технического осмотра"
  }
},
{
  "type": "node",
  "id": 422856141,
  "lat": 55.8754773,
  "lon": 37.4327460,
  "tags": {
    "amenity": "police",
    "name": "Стационарный пост ДПС (СЗАО)"
  }
},
{
  "type": "node",
  "id": 422856155,
  "lat": 55.7325232,
  "lon": 37.3802096,
  "tags": {
    "amenity": "police",
    "name": "Стационарный пост ДПС (ЗАО)"
  }
},
{
  "type": "node",
  "id": 423775286,
  "lat": 55.6124917,
  "lon": 37.4937959,
  "tags": {
    "amenity": "police",
    "name": "Стационарный пост ДПС (ЮЗАО)"
  }
},
{
  "type": "node",
  "id": 424034742,
  "lat": 51.6603906,
  "lon": 35.6410529,
  "tags": {
    "amenity": "police"
  }
},
{
  "type": "node",
  "id": 424188002,
  "lat": 55.4994661,
  "lon": 35.0373395,
  "tags": {
    "amenity": "police",
    "name": "ДПС"
  }
},
{
  "type": "node",
  "id": 424264340,
  "lat": 58.5875049,
  "lon": 49.5928427,
  "tags": {
    "amenity": "police"
  }
},
{
  "type": "node",
  "id": 425340497,
  "lat": 43.5797159,
  "lon": 40.6911215,
  "tags": {
    "amenity": "police",
    "name": "Погран. застава"
  }
},
{
  "type": "node",
  "id": 429410260,
  "lat": 51.7139374,
  "lon": 55.2130255,
  "tags": {
    "amenity": "police",
    "name": "Пост ДПС на Беляевском шоссе"
  }
},
{
  "type": "node",
  "id": 430368458,
  "lat": 58.5961179,
  "lon": 49.6069758,
  "tags": {
    "amenity": "police",
    "name": "уч 10"
  }
},
{
  "type": "node",
  "id": 430421500,
  "lat": 58.6006244,
  "lon": 49.6048105,
  "tags": {
    "amenity": "police",
    "name": "уч 9"
  }
},
{
  "type": "node",
  "id": 432507356,
  "lat": 53.3807712,
  "lon": 58.9770090,
  "tags": {
    "amenity": "police",
    "name": "Полиция"
  }
},
{
  "type": "node",
  "id": 441032715,
  "lat": 54.7103707,
  "lon": 43.4073762,
  "tags": {
    "amenity": "police"
  }
},
{
  "type": "node",
  "id": 441032978,
  "lat": 54.9381385,
  "lon": 43.2593761,
  "tags": {
    "amenity": "police"
  }
},
{
  "type": "node",
  "id": 441858316,
  "lat": 55.6610571,
  "lon": 37.6042269,
  "tags": {
    "amenity": "police",
    "name": "8-й отдел полиции УМВД на Московском метрополитене"
  }
},
{
  "type": "node",
  "id": 441912438,
  "lat": 59.8578904,
  "lon": 30.1792009,
  "tags": {
    "amenity": "police",
    "name": "Отделение полиции №74"
  }
},
{
  "type": "node",
  "id": 441995082,
  "lat": 60.3378810,
  "lon": 56.5114481,
  "tags": {
    "amenity": "police",
    "name": "пост ДПС"
  }
},
{
  "type": "node",
  "id": 442000613,
  "lat": 56.7714431,
  "lon": 62.0603322,
  "tags": {
    "amenity": "police",
    "contact:phone": "+7-34376-22220",
    "name": "ОВД"
  }
},
{
  "type": "node",
  "id": 442194548,
  "lat": 53.2312851,
  "lon": 44.9155117,
  "tags": {
    "amenity": "police",
    "name": "Участковый пункт №15"
  }
},
{
  "type": "node",
  "id": 442440517,
  "lat": 55.9162218,
  "lon": 37.8552222,
  "tags": {
    "amenity": "police",
    "name": "Костинское отделение полиции"
  }
},
{
  "type": "node",
  "id": 442527505,
  "lat": 53.2215786,
  "lon": 44.9202664,
  "tags": {
    "amenity": "police",
    "name": "отд.милиции"
  }
},
{
  "type": "node",
  "id": 442865748,
  "lat": 55.9177235,
  "lon": 37.8387567,
  "tags": {
    "amenity": "police",
    "name": "ИВС"
  }
},
{
  "type": "node",
  "id": 442946490,
  "lat": 59.8523478,
  "lon": 48.2775335,
  "tags": {
    "addr:city": "Опарино",
    "addr:country": "RU",
    "addr:postcode": "613810",
    "amenity": "police",
    "name": "Опаринское РОВД"
  }
},
{
  "type": "node",
  "id": 443447743,
  "lat": 55.9003422,
  "lon": 37.3877325,
  "tags": {
    "amenity": "police"
  }
},
{
  "type": "node",
  "id": 443661991,
  "lat": 52.0361890,
  "lon": 113.5198472,
  "tags": {
    "amenity": "police",
    "name": "Краевое ГИБДД"
  }
},
{
  "type": "node",
  "id": 444874428,
  "lat": 53.2226815,
  "lon": 44.9632603,
  "tags": {
    "amenity": "police",
    "name": "ГИБДД Окт. района"
  }
},
{
  "type": "node",
  "id": 446003377,
  "lat": 59.4093776,
  "lon": 56.7866264,
  "tags": {
    "amenity": "police"
  }
},
{
  "type": "node",
  "id": 446038359,
  "lat": 55.7437699,
  "lon": 37.8818945,
  "tags": {
    "amenity": "police",
    "name": "ОВД Новокосино"
  }
},
{
  "type": "node",
  "id": 446286191,
  "lat": 55.6558591,
  "lon": 37.7368447,
  "tags": {
    "amenity": "police"
  }
},
{
  "type": "node",
  "id": 448112285,
  "lat": 55.5994513,
  "lon": 37.7389755,
  "tags": {
    "amenity": "police",
    "name": "ОВД Орехово-Борисово Южное"
  }
},
{
  "type": "node",
  "id": 448950770,
  "lat": 56.4919635,
  "lon": 36.5595481,
  "tags": {
    "amenity": "police",
    "name": "ДПС"
  }
},
{
  "type": "node",
  "id": 452966723,
  "lat": 51.6667385,
  "lon": 35.6408723,
  "tags": {
    "amenity": "police",
    "name": "ГИБДД"
  }
},
{
  "type": "node",
  "id": 453233965,
  "lat": 56.8409280,
  "lon": 60.5713155,
  "tags": {
    "amenity": "police",
    "name": "ГИБДД Верх-Исетского района"
  }
},
{
  "type": "node",
  "id": 455581441,
  "lat": 51.7116349,
  "lon": 35.6110252,
  "tags": {
    "amenity": "police"
  }
},
{
  "type": "node",
  "id": 455581556,
  "lat": 51.6321093,
  "lon": 35.5739275,
  "tags": {
    "amenity": "police"
  }
},
{
  "type": "node",
  "id": 455987669,
  "lat": 56.2198746,
  "lon": 34.3422626,
  "tags": {
    "amenity": "police",
    "name": "ДПС"
  }
},
{
  "type": "node",
  "id": 456410471,
  "lat": 48.7631126,
  "lon": 44.8065872,
  "tags": {
    "amenity": "police",
    "name": "ОВД 3"
  }
},
{
  "type": "node",
  "id": 457316834,
  "lat": 56.0009435,
  "lon": 93.0382293,
  "tags": {
    "amenity": "police",
    "name": "Участковый пункт полиции №2",
    "operator": "Полиция России",
    "operator:en": "Police of Russia",
    "operator:wikidata": "Q1188211"
  }
},
{
  "type": "node",
  "id": 458382123,
  "lat": 44.8285429,
  "lon": 37.6492319,
  "tags": {
    "amenity": "police",
    "name": "Пост ДПС"
  }
},
{
  "type": "node",
  "id": 458457992,
  "lat": 51.6351085,
  "lon": 39.2719082,
  "tags": {
    "amenity": "police",
    "name": "Отделение полиции"
  }
},
{
  "type": "node",
  "id": 460026604,
  "lat": 51.6608571,
  "lon": 35.7201083,
  "tags": {
    "amenity": "police",
    "name": "Пост ДПС"
  }
},
{
  "type": "node",
  "id": 460385291,
  "lat": 55.0111451,
  "lon": 38.9445028,
  "tags": {
    "amenity": "police",
    "name": "ДПС"
  }
},
{
  "type": "node",
  "id": 462192196,
  "lat": 55.0227796,
  "lon": 82.9156577,
  "tags": {
    "amenity": "police",
    "name": "УВД Новосибирского района"
  }
},
{
  "type": "node",
  "id": 470338313,
  "lat": 53.2007466,
  "lon": 34.6092592,
  "tags": {
    "amenity": "police",
    "name": "Пост транспортного контроля"
  }
},
{
  "type": "node",
  "id": 470938781,
  "lat": 56.0241274,
  "lon": 35.9540563,
  "tags": {
    "amenity": "police",
    "name": "ДПС"
  }
},
{
  "type": "node",
  "id": 471333803,
  "lat": 55.0586644,
  "lon": 36.9644610,
  "tags": {
    "amenity": "police",
    "name": "Пост дпс"
  }
},
{
  "type": "node",
  "id": 471592101,
  "lat": 55.8756039,
  "lon": 38.9621327,
  "tags": {
    "amenity": "police",
    "name": "Пост ДПС"
  }
},
{
  "type": "node",
  "id": 471744004,
  "lat": 58.3573742,
  "lon": 30.9727465,
  "tags": {
    "amenity": "police",
    "name": "Бывший пост ГИБДД"
  }
},
{
  "type": "node",
  "id": 471744582,
  "lat": 58.2103874,
  "lon": 30.7210065,
  "tags": {
    "amenity": "police",
    "name": "ОМВД по Шимскому району"
  }
},
{
  "type": "node",
  "id": 471975978,
  "lat": 55.8023236,
  "lon": 38.9917902,
  "tags": {
    "amenity": "police",
    "name": "ОГИБДД Орехово-Зуево"
  }
},
{
  "type": "node",
  "id": 472600340,
  "lat": 55.0433767,
  "lon": 82.2323157,
  "tags": {
    "amenity": "police",
    "name": "ДПС"
  }
},
{
  "type": "node",
  "id": 472635840,
  "lat": 46.8742685,
  "lon": 142.7539285,
  "tags": {
    "amenity": "police",
    "name": "ДПС ГИБДД",
    "name:en": "Traffic Police Post"
  }
},
{
  "type": "node",
  "id": 472691169,
  "lat": 61.1269082,
  "lon": 29.8825280,
  "tags": {
    "amenity": "police",
    "name": "Участковый пункт милиции №2555"
  }
},
{
  "type": "node",
  "id": 473393109,
  "lat": 54.4754407,
  "lon": 38.7268511,
  "tags": {
    "addr:housenumber": "7",
    "addr:street": "Советская площадь",
    "amenity": "police",
    "name": "ОВО"
  }
},
{
  "type": "node",
  "id": 473493583,
  "lat": 55.3195485,
  "lon": 37.1611704,
  "tags": {
    "amenity": "police",
    "name": "Полиция"
  }
},
{
  "type": "node",
  "id": 473727247,
  "lat": 56.8139123,
  "lon": 60.5827571,
  "tags": {
    "addr:city": "Екатеринбург",
    "addr:housenumber": "1",
    "addr:street": "улица Чкалова",
    "amenity": "police",
    "name": "Управление ГИБДД ГУ МВД России по Свердловской области"
  }
},
{
  "type": "node",
  "id": 475106247,
  "lat": 58.5803975,
  "lon": 31.2919237,
  "tags": {
    "amenity": "police",
    "name": "Пост ДПС",
    "police": "traffic_police"
  }
},
{
  "type": "node",
  "id": 475117550,
  "lat": 57.9983269,
  "lon": 33.1606803,
  "tags": {
    "amenity": "police",
    "name": "Пост ДПС",
    "police": "traffic_police"
  }
},
{
  "type": "node",
  "id": 476603966,
  "lat": 54.6491148,
  "lon": 55.9330365,
  "tags": {
    "amenity": "police",
    "name": "ДПС"
  }
},
{
  "type": "node",
  "id": 476662059,
  "lat": 53.2003938,
  "lon": 50.1630070,
  "tags": {
    "amenity": "police",
    "name": "Уголовно-исполнительная инспекция №7"
  }
},
{
  "type": "node",
  "id": 480758625,
  "lat": 55.6248274,
  "lon": 37.6030433,
  "tags": {
    "amenity": "police"
  }
},
{
  "type": "node",
  "id": 480758981,
  "lat": 55.6186371,
  "lon": 37.5944298,
  "tags": {
    "amenity": "police",
    "name": "ОВД Чертаново Центральное"
  }
},
{
  "type": "node",
  "id": 490671228,
  "lat": 59.7307568,
  "lon": 30.5882494,
  "tags": {
    "amenity": "police",
    "name": "МРЭО ГИБДД"
  }
},
{
  "type": "node",
  "id": 492093293,
  "lat": 55.6397604,
  "lon": 37.3341634,
  "tags": {
    "addr:city": "Москва",
    "addr:housenumber": "18",
    "addr:street": "улица Федосьино",
    "amenity": "police",
    "name": "Аварийно-спасательный отряд №6 ГКУ «ПСЦ»",
    "opening_hours": "24/7"
  }
},
{
  "type": "node",
  "id": 493610737,
  "lat": 54.1733701,
  "lon": 45.9723688,
  "tags": {
    "amenity": "police"
  }
},
{
  "type": "node",
  "id": 494294949,
  "lat": 45.0347762,
  "lon": 38.9695283,
  "tags": {
    "amenity": "police"
  }
},
{
  "type": "node",
  "id": 494759810,
  "lat": 57.6906840,
  "lon": 39.7573469,
  "tags": {
    "amenity": "police",
    "name": "Отдел вневедомственной охраны по Дзержинскому р-ну"
  }
},
{
  "type": "node",
  "id": 495974837,
  "lat": 54.4816966,
  "lon": 36.3022487,
  "tags": {
    "amenity": "police",
    "name": "Пост ДПС"
  }
},
{
  "type": "node",
  "id": 499235569,
  "lat": 56.1780547,
  "lon": 43.7481175,
  "tags": {
    "amenity": "police",
    "name": "ДПС",
    "opening_hours": "24/7"
  }
},
{
  "type": "node",
  "id": 500033240,
  "lat": 54.1850862,
  "lon": 45.1737051,
  "tags": {
    "amenity": "police",
    "name": "МВД",
    "operator": "Министерство Внутренних Дел",
    "operator:en": "Ministry of Internal Affairs",
    "operator:short": "МВД",
    "operator:wikidata": "Q1192838"
  }
},
{
  "type": "node",
  "id": 500510865,
  "lat": 51.7739725,
  "lon": 36.1772058,
  "tags": {
    "amenity": "police",
    "name": "Отдел полиции № 3"
  }
},
{
  "type": "node",
  "id": 503821751,
  "lat": 51.9742163,
  "lon": 116.5885289,
  "tags": {
    "amenity": "police",
    "name": "Милиция, ГАИ"
  }
},
{
  "type": "node",
  "id": 503896822,
  "lat": 56.9833410,
  "lon": 53.1391352,
  "tags": {
    "amenity": "police",
    "name": "пост ДПС"
  }
},
{
  "type": "node",
  "id": 504893613,
  "lat": 55.6249095,
  "lon": 37.8641548,
  "tags": {
    "amenity": "police"
  }
},
{
  "type": "node",
  "id": 506074899,
  "lat": 54.4296132,
  "lon": 86.4470427,
  "tags": {
    "amenity": "police"
  }
},
{
  "type": "node",
  "id": 506457793,
  "lat": 53.1483773,
  "lon": 44.9621340,
  "tags": {
    "amenity": "police",
    "name": "ДПС"
  }
},
{
  "type": "node",
  "id": 507103397,
  "lat": 55.5314021,
  "lon": 36.3589971,
  "tags": {
    "amenity": "police",
    "name": "ДПС",
    "opening_hours": "24/7"
  }
},
{
  "type": "node",
  "id": 507105828,
  "lat": 61.9451161,
  "lon": 64.9429394,
  "tags": {
    "amenity": "police"
  }
},
{
  "type": "node",
  "id": 507826207,
  "lat": 53.5466145,
  "lon": 43.6797274,
  "tags": {
    "amenity": "police",
    "name": "Пост ДПС"
  }
},
{
  "type": "node",
  "id": 507910868,
  "lat": 53.9389466,
  "lon": 43.1405191,
  "tags": {
    "amenity": "police",
    "name": "Пост ДПС"
  }
},
{
  "type": "node",
  "id": 510806819,
  "lat": 54.0561950,
  "lon": 42.8806162,
  "tags": {
    "amenity": "police",
    "name": "Пост ДПС"
  }
},
{
  "type": "node",
  "id": 510906528,
  "lat": 44.9980442,
  "lon": 38.9608472,
  "tags": {
    "amenity": "police",
    "name": "ДПС"
  }
},
{
  "type": "node",
  "id": 510907315,
  "lat": 44.9994725,
  "lon": 39.1148706,
  "tags": {
    "amenity": "police",
    "name": "ДПС"
  }
},
{
  "type": "node",
  "id": 512040782,
  "lat": 54.8243322,
  "lon": 61.5917873,
  "tags": {
    "amenity": "police",
    "name": "ОТДЕЛ ВНУТРЕННИХ ДЕЛ ЕТКУЛЬСКОГО РАЙОНА \"РОВД\""
  }
},
{
  "type": "node",
  "id": 515778451,
  "lat": 53.4044601,
  "lon": 40.1538197,
  "tags": {
    "amenity": "police",
    "name": "ДПС"
  }
},
{
  "type": "node",
  "id": 515778550,
  "lat": 51.7801646,
  "lon": 41.8132944,
  "tags": {
    "amenity": "police",
    "name": "ДПС"
  }
},
{
  "type": "node",
  "id": 517532884,
  "lat": 45.0004081,
  "lon": 41.1291756,
  "tags": {
    "amenity": "police",
    "name": "Пост милиции"
  }
},
{
  "type": "node",
  "id": 517889899,
  "lat": 55.3349032,
  "lon": 79.6674925,
  "tags": {
    "amenity": "police"
  }
},
{
  "type": "node",
  "id": 517898594,
  "lat": 55.3372604,
  "lon": 79.7393841,
  "tags": {
    "amenity": "police"
  }
},
{
  "type": "node",
  "id": 517898595,
  "lat": 55.2046344,
  "lon": 80.3538608,
  "tags": {
    "amenity": "police"
  }
},
{
  "type": "node",
  "id": 521072342,
  "lat": 56.8547741,
  "lon": 53.2907007,
  "tags": {
    "addr:city": "Ижевск",
    "addr:housenumber": "15",
    "addr:street": "Молодёжная улица",
    "amenity": "police",
    "name": "Участковый пункт полиции №29"
  }
},
{
  "type": "node",
  "id": 525598941,
  "lat": 56.0320848,
  "lon": 35.5164332,
  "tags": {
    "amenity": "police",
    "name": "УВД Шаховская"
  }
},
{
  "type": "node",
  "id": 528123254,
  "lat": 55.6309460,
  "lon": 38.3588734,
  "tags": {
    "amenity": "police",
    "name": "пост ДПС"
  }
},
{
  "type": "node",
  "id": 528670791,
  "lat": 57.1485816,
  "lon": 65.5959676,
  "tags": {
    "amenity": "police",
    "name": "Областное ГИБДД"
  }
},
{
  "type": "node",
  "id": 535384186,
  "lat": 57.7360580,
  "lon": 40.8340498,
  "tags": {
    "amenity": "police",
    "name": "Пост ДПС"
  }
},
{
  "type": "node",
  "id": 536471157,
  "lat": 45.4288719,
  "lon": 35.8228670,
  "tags": {
    "amenity": "police"
  }
},
{
  "type": "node",
  "id": 536747033,
  "lat": 60.0123269,
  "lon": 30.2459116,
  "tags": {
    "amenity": "police"
  }
},
{
  "type": "node",
  "id": 536752098,
  "lat": 44.9992568,
  "lon": 41.1260506,
  "tags": {
    "amenity": "police",
    "name": "Медицинский вытрезвитель"
  }
},
{
  "type": "node",
  "id": 538134900,
  "lat": 56.7872922,
  "lon": 60.7818559,
  "tags": {
    "addr:housenumber": "3",
    "addr:street": "Латвийская улица",
    "amenity": "police",
    "name": "Отдел полиции Октябрьского РУВД"
  }
},
{
  "type": "node",
  "id": 539570783,
  "lat": 57.5923954,
  "lon": 39.8864084,
  "tags": {
    "amenity": "police",
    "name": "областное ГИБДД"
  }
},
{
  "type": "node",
  "id": 540450429,
  "lat": 55.2695650,
  "lon": 37.8917822,
  "tags": {
    "amenity": "police"
  }
},
{
  "type": "node",
  "id": 540556603,
  "lat": 45.4836045,
  "lon": 39.4079483,
  "tags": {
    "amenity": "police",
    "name": "Заброшенный пост ДПС"
  }
},
{
  "type": "node",
  "id": 540620847,
  "lat": 55.0433596,
  "lon": 58.9830848,
  "tags": {
    "amenity": "police",
    "name": "Полиция"
  }
},
{
  "type": "node",
  "id": 540663129,
  "lat": 55.7481570,
  "lon": 52.4492811,
  "tags": {
    "amenity": "police"
  }
},
{
  "type": "node",
  "id": 541007822,
  "lat": 55.6541625,
  "lon": 37.7016152,
  "tags": {
    "amenity": "police",
    "name": "Приёмник-распределитель УВД ЮВАО",
    "phone": "+7 495 3565606"
  }
},
{
  "type": "node",
  "id": 541410200,
  "lat": 55.1382110,
  "lon": 59.6702248,
  "tags": {
    "amenity": "police",
    "name": "ОГИБДД ОМВД по г. Златоусту"
  }
},
{
  "type": "node",
  "id": 541410305,
  "lat": 55.1386622,
  "lon": 59.6709749,
  "tags": {
    "amenity": "police",
    "contact:phone": "+7 3513 653291;+7 3513 656102",
    "name": "ОМВД по г. Златоусту"
  }
},
{
  "type": "node",
  "id": 544382520,
  "lat": 43.5821036,
  "lon": 40.7919640,
  "tags": {
    "amenity": "police",
    "name": "Кордон пограничников \"Дамхурц\""
  }
},
{
  "type": "node",
  "id": 544410951,
  "lat": 54.1152888,
  "lon": 52.5242870,
  "tags": {
    "amenity": "police",
    "name": "КПМ"
  }
},
{
  "type": "node",
  "id": 544469237,
  "lat": 56.5585227,
  "lon": 36.4324907,
  "tags": {
    "amenity": "police",
    "name": "Завидовское отделение полиции"
  }
},
{
  "type": "node",
  "id": 546600564,
  "lat": 58.5187759,
  "lon": 31.2323142,
  "tags": {
    "amenity": "police",
    "name": "ГИБДД Новгорода"
  }
},
{
  "type": "node",
  "id": 553416139,
  "lat": 51.6346272,
  "lon": 39.1885353,
  "tags": {
    "amenity": "police",
    "name": "Участковый пункт полиции № 46"
  }
},
{
  "type": "node",
  "id": 559989520,
  "lat": 57.7463767,
  "lon": 40.9299598,
  "tags": {
    "amenity": "police",
    "name": "Пост ДПС"
  }
},
{
  "type": "node",
  "id": 559991254,
  "lat": 57.7870655,
  "lon": 41.0813386,
  "tags": {
    "amenity": "police",
    "name": "ДПС"
  }
},
{
  "type": "node",
  "id": 560454050,
  "lat": 57.5717545,
  "lon": 39.9316482,
  "tags": {
    "amenity": "police",
    "name": "Фрунзенский РОВД"
  }
},
{
  "type": "node",
  "id": 563997435,
  "lat": 53.3709406,
  "lon": 50.3677773,
  "tags": {
    "amenity": "police",
    "name": "МРЭО"
  }
},
{
  "type": "node",
  "id": 564582108,
  "lat": 59.4097676,
  "lon": 56.8546159,
  "tags": {
    "amenity": "police"
  }
},
{
  "type": "node",
  "id": 564683888,
  "lat": 56.9110718,
  "lon": 62.0448514,
  "tags": {
    "amenity": "police",
    "name": "Отдел МВД России по г. Сухой Лог"
  }
},
{
  "type": "node",
  "id": 564683890,
  "lat": 56.8927747,
  "lon": 62.0238746,
  "tags": {
    "amenity": "police",
    "name": "ГИБДД"
  }
},
{
  "type": "node",
  "id": 564719516,
  "lat": 48.6359958,
  "lon": 42.8688220,
  "tags": {
    "amenity": "police"
  }
},
{
  "type": "node",
  "id": 564930814,
  "lat": 51.6656206,
  "lon": 39.2030203,
  "tags": {
    "amenity": "police"
  }
},
{
  "type": "node",
  "id": 566572646,
  "lat": 52.5127952,
  "lon": 85.1436136,
  "tags": {
    "amenity": "police",
    "name": "УВД \"Приобский"
  }
},
{
  "type": "node",
  "id": 566573604,
  "lat": 57.5953787,
  "lon": 39.8150910,
  "tags": {
    "addr:city": "Ярославль",
    "addr:country": "RU",
    "addr:housenumber": "12",
    "addr:street": "улица Декабристов",
    "amenity": "police",
    "name": "1 Отдел Техосмотра и регистрации",
    "official_name": "1 МОГТОР АМТС ГИБДД УВД по Ярославской области",
    "phone": "+7 4852 746552"
  }
},
{
  "type": "node",
  "id": 566575234,
  "lat": 52.4891352,
  "lon": 85.1505712,
  "tags": {
    "amenity": "police",
    "name": "Участковый пункт милиции №21"
  }
},
{
  "type": "node",
  "id": 568036834,
  "lat": 57.6106764,
  "lon": 39.8336130,
  "tags": {
    "addr:housenumber": "64А",
    "amenity": "police",
    "name": "Отдел вневедомственной охраны Красноперекопского р-на"
  }
},
{
  "type": "node",
  "id": 569673525,
  "lat": 59.9580079,
  "lon": 30.3217787,
  "tags": {
    "amenity": "police"
  }
},
{
  "type": "node",
  "id": 569918892,
  "lat": 51.2871674,
  "lon": 37.8044529,
  "tags": {
    "amenity": "police"
  }
},
{
  "type": "node",
  "id": 570742450,
  "lat": 55.0325797,
  "lon": 82.9030021,
  "tags": {
    "amenity": "police",
    "name": "Отдельный батальон ДПС ГИБДД ГУВД Новосибирской области"
  }
},
{
  "type": "node",
  "id": 571462184,
  "lat": 55.7253302,
  "lon": 37.5626192,
  "tags": {
    "amenity": "police",
    "name": "ОВД Хамовники города Москвы"
  }
},
{
  "type": "node",
  "id": 574804635,
  "lat": 55.8046869,
  "lon": 38.9990221,
  "tags": {
    "amenity": "police",
    "name": "ОУР МУ МВД \"Орехово-Зуевское\""
  }
},
{
  "type": "node",
  "id": 577328978,
  "lat": 55.8623465,
  "lon": 37.6801464,
  "tags": {
    "amenity": "police",
    "name": "ОВД на ст. Лосиноостровская"
  }
},
{
  "type": "node",
  "id": 581090827,
  "lat": 63.5640381,
  "lon": 53.6175444,
  "tags": {
    "amenity": "police",
    "name": "ДПС"
  }
},
{
  "type": "node",
  "id": 582504614,
  "lat": 51.7126250,
  "lon": 39.2293585,
  "tags": {
    "amenity": "police",
    "name": "Участковый пункт полиции №13",
    "operator": "Отдел полиции №6 УМВД России по городу Воронежу",
    "phone": "+7 473 2537790",
    "ref": "13"
  }
},
{
  "type": "node",
  "id": 582542793,
  "lat": 51.6670539,
  "lon": 39.1293310,
  "tags": {
    "amenity": "police",
    "name": "Межрайонный регистрационно-экзаменационный отдел Государственной инспекции безопасности дорожного движения №1 Главного управления Министерства внутренних дел России по Воронежской области",
    "operator": "Управление ГИБДД ГУ МВД России по Воронежской области",
    "phone": "+7 473 2202059",
    "ref": "1120154",
    "short_name": "МРЭО ГИБДД №1 ГУ МВД России по Воронежской области"
  }
},
{
  "type": "node",
  "id": 583358159,
  "lat": 55.5756063,
  "lon": 39.4994002,
  "tags": {
    "amenity": "police",
    "name": "Пост ДПС"
  }
},
{
  "type": "node",
  "id": 583541722,
  "lat": 56.9972961,
  "lon": 61.4366930,
  "tags": {
    "amenity": "police",
    "contact:phone": "+7-34365-31748",
    "name": "ОГИБДД г. Асбест",
    "official_name": "РЭО ГИБДД Асбестовского УВД"
  }
},
{
  "type": "node",
  "id": 584035353,
  "lat": 55.8161146,
  "lon": 37.8662911,
  "tags": {
    "amenity": "police"
  }
},
{
  "type": "node",
  "id": 585043597,
  "lat": 55.7327482,
  "lon": 37.7671070,
  "tags": {
    "amenity": "police",
    "name": "ОВД Рязанский"
  }
},
{
  "type": "node",
  "id": 585161092,
  "lat": 62.1767991,
  "lon": 30.6905830,
  "tags": {
    "amenity": "police"
  }
},
{
  "type": "node",
  "id": 586061180,
  "lat": 57.6080697,
  "lon": 39.8568739,
  "tags": {
    "amenity": "police",
    "name": "Красноперекопский РОВД"
  }
},
{
  "type": "node",
  "id": 586420701,
  "lat": 53.2036045,
  "lon": 34.2532931,
  "tags": {
    "amenity": "police",
    "name": "ДПС"
  }
},
{
  "type": "node",
  "id": 593917420,
  "lat": 61.3121821,
  "lon": 47.1469508,
  "tags": {
    "amenity": "police",
    "name": "ГОВД"
  }
},
{
  "type": "node",
  "id": 593941359,
  "lat": 55.6096644,
  "lon": 37.5138931,
  "tags": {
    "amenity": "police",
    "name": "ОВД Ясенево"
  }
},
{
  "type": "node",
  "id": 595127561,
  "lat": 55.8877662,
  "lon": 37.6154844,
  "tags": {
    "amenity": "police",
    "name": "Участковый"
  }
},
{
  "type": "node",
  "id": 595510655,
  "lat": 56.4046573,
  "lon": 38.7169836,
  "tags": {
    "amenity": "police",
    "name": "ГИБДД"
  }
},
{
  "type": "node",
  "id": 595635458,
  "lat": 56.0809603,
  "lon": 63.6448586,
  "tags": {
    "amenity": "police",
    "name": "ОВД"
  }
},
{
  "type": "node",
  "id": 596130729,
  "lat": 57.5251956,
  "lon": 38.3177385,
  "tags": {
    "amenity": "police",
    "name": "Угличский РОВД"
  }
},
{
  "type": "node",
  "id": 597759666,
  "lat": 55.8638068,
  "lon": 37.4446602,
  "tags": {
    "amenity": "police",
    "name": "ОМВД России по району Северное Тушино"
  }
},
{
  "type": "node",
  "id": 598065748,
  "lat": 45.4682198,
  "lon": 40.6797579,
  "tags": {
    "amenity": "police"
  }
},
{
  "type": "node",
  "id": 598098359,
  "lat": 55.0276709,
  "lon": 36.7516211,
  "tags": {
    "amenity": "police"
  }
},
{
  "type": "node",
  "id": 598968941,
  "lat": 55.8572373,
  "lon": 37.6418621,
  "tags": {
    "amenity": "police",
    "name": "ОВД Свиблово"
  }
},
{
  "type": "node",
  "id": 599905949,
  "lat": 55.5030370,
  "lon": 37.5614858,
  "tags": {
    "amenity": "police",
    "name": "Щербинский отдел полиции"
  }
},
{
  "type": "node",
  "id": 600313839,
  "lat": 51.5305536,
  "lon": 45.9844627,
  "tags": {
    "amenity": "police"
  }
},
{
  "type": "node",
  "id": 600577832,
  "lat": 53.4796455,
  "lon": 49.4649059,
  "tags": {
    "amenity": "police"
  }
},
{
  "type": "node",
  "id": 603360235,
  "lat": 67.5043550,
  "lon": 64.0468329,
  "tags": {
    "amenity": "police",
    "name": "ГИБДД",
    "phone": "+78215165200"
  }
},
{
  "type": "node",
  "id": 603759177,
  "lat": 46.3030140,
  "lon": 44.1884414,
  "tags": {
    "amenity": "police",
    "name": "ДПС"
  }
},
{
  "type": "node",
  "id": 603994906,
  "lat": 55.4118816,
  "lon": 37.5675509,
  "tags": {
    "amenity": "police",
    "name": "1-й отдел полиции УМВД России"
  }
},
{
  "type": "node",
  "id": 604231273,
  "lat": 58.1869045,
  "lon": 40.1854657,
  "tags": {
    "amenity": "police",
    "name": "Полиция",
    "name:en": "Police",
    "name:ru": "Полиция"
  }
},
{
  "type": "node",
  "id": 604528991,
  "lat": 58.3617994,
  "lon": 40.6936488,
  "tags": {
    "amenity": "police",
    "name": "Любимский РОВД"
  }
},
{
  "type": "node",
  "id": 605012583,
  "lat": 57.8804241,
  "lon": 59.9453692,
  "tags": {
    "amenity": "police",
    "name": "Отделение полиции №2"
  }
},
{
  "type": "node",
  "id": 606974546,
  "lat": 54.3616868,
  "lon": 59.4347161,
  "tags": {
    "amenity": "police"
  }
},
{
  "type": "node",
  "id": 610448840,
  "lat": 56.0034304,
  "lon": 37.8381048,
  "tags": {
    "addr:housenumber": "19",
    "addr:street": "Оранжерейная улица",
    "amenity": "police"
  }
},
{
  "type": "node",
  "id": 610512310,
  "lat": 57.7709100,
  "lon": 56.8904989,
  "tags": {
    "amenity": "police",
    "name": "Участковое отделение полиции"
  }
},
{
  "type": "node",
  "id": 610777268,
  "lat": 56.2274315,
  "lon": 43.4067912,
  "tags": {
    "amenity": "police"
  }
},
{
  "type": "node",
  "id": 610805766,
  "lat": 64.9241351,
  "lon": 77.7764532,
  "tags": {
    "addr:city": "Тарко-Сале",
    "addr:country": "RU",
    "addr:district": "Пуровский район",
    "addr:region": "Ямало-Ненецкий автономный округ",
    "addr:street": "Клубная улица",
    "amenity": "police",
    "name": "РОВД"
  }
},
{
  "type": "node",
  "id": 610844636,
  "lat": 55.2572769,
  "lon": 40.0289184,
  "tags": {
    "amenity": "police",
    "name": "ДПС"
  }
},
{
  "type": "node",
  "id": 611556707,
  "lat": 53.3150122,
  "lon": 83.8313666,
  "tags": {
    "amenity": "police",
    "name": "Контрольный пост ДПС"
  }
},
{
  "type": "node",
  "id": 611559083,
  "lat": 67.9647642,
  "lon": 32.8678722,
  "tags": {
    "amenity": "police",
    "name": "ДПС пост"
  }
},
{
  "type": "node",
  "id": 611697487,
  "lat": 55.6050391,
  "lon": 37.5465653,
  "tags": {
    "amenity": "police",
    "name": "Паспортный стол Ясенево"
  }
},
{
  "type": "node",
  "id": 612037026,
  "lat": 55.1607414,
  "lon": 37.4705915,
  "tags": {
    "amenity": "police",
    "name": "МОТОР-3 ГИБДД"
  }
},
{
  "type": "node",
  "id": 613639857,
  "lat": 68.8211158,
  "lon": 33.1127006,
  "tags": {
    "amenity": "police",
    "name": "Пост ДПС",
    "police": "traffic_police"
  }
},
{
  "type": "node",
  "id": 615111374,
  "lat": 43.7608286,
  "lon": 131.9900231,
  "tags": {
    "amenity": "police",
    "name": "Стационарный пост ДПС",
    "name:en": "Police station",
    "name:ru": "Стационарный пост ДПС",
    "source": "Yahoo"
  }
},
{
  "type": "node",
  "id": 616263898,
  "lat": 55.4626878,
  "lon": 43.8775402,
  "tags": {
    "amenity": "police",
    "name": "102-й километр"
  }
},
{
  "type": "node",
  "id": 616964006,
  "lat": 53.3628030,
  "lon": 58.9826341,
  "tags": {
    "amenity": "police",
    "name": "РОВД Орджоникидзевского р-на"
  }
},
{
  "type": "node",
  "id": 617523029,
  "lat": 58.0084897,
  "lon": 56.1827260,
  "tags": {
    "amenity": "police",
    "name": "ГИБДД Дзержинского р-на"
  }
},
{
  "type": "node",
  "id": 617542614,
  "lat": 47.2090469,
  "lon": 38.9275481,
  "tags": {
    "amenity": "police",
    "name": "Отдел милиции №1 г. Таганрог",
    "name:ru": "Отдел милиции №1 г. Таганрог",
    "name:uk": "Відділ міліції №1 м. Таганрог"
  }
},
{
  "type": "node",
  "id": 617754815,
  "lat": 56.8959549,
  "lon": 59.9411542,
  "tags": {
    "addr:housenumber": "21",
    "addr:street": "улица Ватутина",
    "amenity": "police",
    "name": "ОМВД России по г. Первоуральск",
    "opening_hours": "24/7"
  }
},
{
  "type": "node",
  "id": 617858479,
  "lat": 67.4983832,
  "lon": 64.0420004,
  "tags": {
    "amenity": "police",
    "name": "УВД"
  }
},
{
  "type": "node",
  "id": 618342590,
  "lat": 47.3145882,
  "lon": 39.0095561,
  "tags": {
    "amenity": "police",
    "name": "Пост ДПС"
  }
},
{
  "type": "node",
  "id": 618791103,
  "lat": 55.1576672,
  "lon": 82.9632370,
  "tags": {
    "amenity": "police",
    "name": "ОВД г.Новосибирск-95"
  }
},
{
  "type": "node",
  "id": 618791177,
  "lat": 55.1576953,
  "lon": 82.9632879,
  "tags": {
    "amenity": "police",
    "name": "ОГИБДД г.Новосибирск-95"
  }
},
{
  "type": "node",
  "id": 619482505,
  "lat": 55.7917890,
  "lon": 37.8159350,
  "tags": {
    "amenity": "police",
    "name": "ОМВД России по району Восточное Измайлово"
  }
},
{
  "type": "node",
  "id": 619688322,
  "lat": 56.6992737,
  "lon": 60.8260488,
  "tags": {
    "amenity": "police"
  }
},
{
  "type": "node",
  "id": 620046928,
  "lat": 56.0596626,
  "lon": 60.7371965,
  "tags": {
    "amenity": "police",
    "name": "ГИБДД"
  }
},
{
  "type": "node",
  "id": 621900045,
  "lat": 55.0021623,
  "lon": 36.4398772,
  "tags": {
    "amenity": "police",
    "name": "ГИБДД"
  }
},
{
  "type": "node",
  "id": 622272414,
  "lat": 55.5729939,
  "lon": 37.5702033,
  "tags": {
    "amenity": "police",
    "name": "Отделение района Северное Бутово УФМС по г. Москве"
  }
},
{
  "type": "node",
  "id": 622304242,
  "lat": 56.8412261,
  "lon": 60.6091165,
  "tags": {
    "amenity": "police",
    "name": "УВД по Кировскому району"
  }
},
{
  "type": "node",
  "id": 622378491,
  "lat": 56.7507874,
  "lon": 60.8077602,
  "tags": {
    "amenity": "police"
  }
},
{
  "type": "node",
  "id": 622459856,
  "lat": 55.8601836,
  "lon": 37.4343514,
  "tags": {
    "addr:city": "Москва",
    "addr:country": "RU",
    "addr:housenumber": "6",
    "addr:street": "Планерная улица",
    "alt_name": "РОВД Северное Тушино",
    "amenity": "police",
    "name": "Отдел МВД России по району Северное Тушино",
    "phone": "+7 495 4955137"
  }
},
{
  "type": "node",
  "id": 623970585,
  "lat": 55.9238488,
  "lon": 37.9198868,
  "tags": {
    "amenity": "police",
    "name": "Загорянское о/м"
  }
},
{
  "type": "node",
  "id": 626574534,
  "lat": 54.2142447,
  "lon": 49.5675037,
  "tags": {
    "addr:city": "Димитровград",
    "addr:housenumber": "38",
    "addr:street": "Промышленная улица",
    "amenity": "police",
    "name": "МРЭО ГИБДД УМВД России по Ульяновской области"
  }
},
{
  "type": "node",
  "id": 627395722,
  "lat": 58.0143513,
  "lon": 56.2827369,
  "tags": {
    "amenity": "police",
    "name": "Участковый пункт полиции",
    "operator": "Полиция России",
    "operator:en": "Police of Russia",
    "operator:wikidata": "Q1188211"
  }
},
{
  "type": "node",
  "id": 627960716,
  "lat": 54.1331729,
  "lon": 33.2772825,
  "tags": {
    "amenity": "police",
    "name": "ДПС"
  }
},
{
  "type": "node",
  "id": 628855564,
  "lat": 57.6352338,
  "lon": 39.8626802,
  "tags": {
    "amenity": "police",
    "name": "ОВД по Ленинскому району"
  }
},
{
  "type": "node",
  "id": 629111679,
  "lat": 66.6756323,
  "lon": 34.3368038,
  "tags": {
    "amenity": "police"
  }
},
{
  "type": "node",
  "id": 633438343,
  "lat": 53.3642392,
  "lon": 59.1271789,
  "tags": {
    "amenity": "police",
    "name": "ДПС"
  }
},
{
  "type": "node",
  "id": 635762730,
  "lat": 58.7615885,
  "lon": 27.8425999,
  "tags": {
    "amenity": "police"
  }
},
{
  "type": "node",
  "id": 637299968,
  "lat": 55.8153447,
  "lon": 37.3950795,
  "tags": {
    "amenity": "police",
    "name": "Общественный пункт охраны порядка"
  }
},
{
  "type": "node",
  "id": 638607233,
  "lat": 55.6438099,
  "lon": 37.4098344,
  "tags": {
    "amenity": "police",
    "wheelchair": "limited"
  }
},
{
  "type": "node",
  "id": 639365896,
  "lat": 42.8099398,
  "lon": 132.8669706,
  "tags": {
    "amenity": "police",
    "name": "ГОВД"
  }
},
{
  "type": "node",
  "id": 640113473,
  "lat": 51.5027572,
  "lon": 46.1249584,
  "tags": {
    "amenity": "police",
    "name": "Пункт полиции"
  }
},
{
  "type": "node",
  "id": 641457830,
  "lat": 44.8808474,
  "lon": 40.5925568,
  "tags": {
    "amenity": "police",
    "name": "РОВД"
  }
},
{
  "type": "node",
  "id": 641457840,
  "lat": 44.8698688,
  "lon": 40.5992702,
  "tags": {
    "amenity": "police",
    "name": "ОГИБДД"
  }
},
{
  "type": "node",
  "id": 642625215,
  "lat": 56.7869488,
  "lon": 105.7668985,
  "tags": {
    "amenity": "police"
  }
},
{
  "type": "node",
  "id": 643040023,
  "lat": 44.0124807,
  "lon": 39.1786450,
  "tags": {
    "amenity": "police",
    "name": "Пост охраны \"Буревестник-3\"",
    "operator": "Буревестник"
  }
},
{
  "type": "node",
  "id": 643044113,
  "lat": 44.0084316,
  "lon": 39.1828593,
  "tags": {
    "amenity": "police",
    "name": "Пост охраны \"Буревестник 2\"",
    "operator": "Буревестник"
  }
},
{
  "type": "node",
  "id": 643243149,
  "lat": 59.1709729,
  "lon": 39.9092871,
  "tags": {
    "amenity": "police",
    "name": "ДПС"
  }
},
{
  "type": "node",
  "id": 643799628,
  "lat": 45.0262952,
  "lon": 39.1065798,
  "tags": {
    "amenity": "police",
    "name": "Участок №6"
  }
},
{
  "type": "node",
  "id": 643955298,
  "lat": 54.8919248,
  "lon": 42.7221964,
  "tags": {
    "amenity": "police",
    "name": "Пост ДПС"
  }
},
{
  "type": "node",
  "id": 648133790,
  "lat": 56.8925548,
  "lon": 62.0237101,
  "tags": {
    "alt_name": "ОВО",
    "amenity": "police",
    "name": "Отдел вневедомственной охраны"
  }
},
{
  "type": "node",
  "id": 648167940,
  "lat": 54.4852855,
  "lon": 53.4720743,
  "tags": {
    "amenity": "police",
    "name": "OVD"
  }
},
{
  "type": "node",
  "id": 648495178,
  "lat": 54.6685126,
  "lon": 86.1306365,
  "tags": {
    "amenity": "police",
    "name": "ДПС"
  }
},
{
  "type": "node",
  "id": 649194513,
  "lat": 59.7494939,
  "lon": 30.5887497,
  "tags": {
    "amenity": "police",
    "name": "Участковый пункт полиции",
    "operator": "Полиция России",
    "operator:en": "Police of Russia",
    "operator:wikidata": "Q1188211"
  }
},
{
  "type": "node",
  "id": 649201004,
  "lat": 59.7424740,
  "lon": 30.6150219,
  "tags": {
    "amenity": "police",
    "name": "ГИБДД"
  }
},
{
  "type": "node",
  "id": 651263001,
  "lat": 57.5357514,
  "lon": 39.7897178,
  "tags": {
    "amenity": "police",
    "name": "Пост ДПС"
  }
},
{
  "type": "node",
  "id": 651902998,
  "lat": 45.2151359,
  "lon": 37.8962903,
  "tags": {
    "amenity": "police"
  }
},
{
  "type": "node",
  "id": 652553539,
  "lat": 54.8217497,
  "lon": 58.4521578,
  "tags": {
    "amenity": "police",
    "name": "ОВД"
  }
},
{
  "type": "node",
  "id": 652692879,
  "lat": 59.9337121,
  "lon": 30.2721759,
  "tags": {
    "amenity": "police",
    "name": "16 отдел полиции"
  }
},
{
  "type": "node",
  "id": 654007182,
  "lat": 59.9709900,
  "lon": 30.3448907,
  "tags": {
    "amenity": "police",
    "name": "Отдел полиции №20",
    "operator": "Полиция России",
    "operator:en": "Police of Russia",
    "operator:wikidata": "Q1188211"
  }
},
{
  "type": "node",
  "id": 654130071,
  "lat": 53.7683640,
  "lon": 87.1206393,
  "tags": {
    "amenity": "police",
    "name": "ГИБДД"
  }
},
{
  "type": "node",
  "id": 654130074,
  "lat": 53.7714109,
  "lon": 87.1163654,
  "tags": {
    "amenity": "police",
    "name": "РОВД Центрального района"
  }
},
{
  "type": "node",
  "id": 655211558,
  "lat": 56.8074778,
  "lon": 60.6199007,
  "tags": {
    "amenity": "police",
    "name": "ЛРО"
  }
},
{
  "type": "node",
  "id": 656749600,
  "lat": 53.9467950,
  "lon": 32.8557273,
  "tags": {
    "amenity": "police",
    "name": "ДПС"
  }
},
{
  "type": "node",
  "id": 656749613,
  "lat": 53.9451976,
  "lon": 32.8628621,
  "tags": {
    "amenity": "police",
    "name": "Милиция"
  }
},
{
  "type": "node",
  "id": 656773024,
  "lat": 54.2382025,
  "lon": 33.7229208,
  "tags": {
    "amenity": "police",
    "name": "ДПС"
  }
},
{
  "type": "node",
  "id": 658227401,
  "lat": 56.3407732,
  "lon": 114.8906874,
  "tags": {
    "amenity": "police"
  }
},
{
  "type": "node",
  "id": 658459014,
  "lat": 54.2189825,
  "lon": 83.3194269,
  "tags": {
    "amenity": "police",
    "name": "МРЭО Черепановского РОВД"
  }
},
{
  "type": "node",
  "id": 659023008,
  "lat": 61.2536527,
  "lon": 73.4163512,
  "tags": {
    "amenity": "police",
    "name": "УМВД по г.Сургуту"
  }
},
{
  "type": "node",
  "id": 659953583,
  "lat": 55.6551940,
  "lon": 37.7353214,
  "tags": {
    "amenity": "police",
    "contact:phone": "+7 499 3490541",
    "name": "МОГТОРЭР №4 ГИБДД ГУ МВД России по г. Москве",
    "official_name": "МЕЖРАЙОННЫЙ ОТДЕЛ ГОСУДАРСТВЕННОГО ТЕХНИЧЕСКОГО ОСМОТРА И РЕГИСТРАЦИОННО-ЭКЗАМЕННАЦИОННОЙ РАБОТЫ №4 ГИБДД ГУ МВД РОССИИ ПО Г. МОСКВЕ",
    "phone": "+7 499 3490541",
    "ref": "1145240"
  }
},
{
  "type": "node",
  "id": 659954602,
  "lat": 55.6591911,
  "lon": 37.7369289,
  "tags": {
    "addr:postcode": "109382",
    "amenity": "police",
    "name": "ГИБДД ЮВАО",
    "opening_hours": "Tu 08:00-14:00,15:00-20:00; We-Fr 08:00-14:00,15:00-18:00; Sa 08:00-14:00,15:00-17:00",
    "phone": "+7 495 3496471",
    "website": "http://www.gibdd.ru"
  }
},
{
  "type": "node",
  "id": 660013630,
  "lat": 55.6696745,
  "lon": 37.7511228,
  "tags": {
    "amenity": "police",
    "name": "ОВД \"Люблино\""
  }
},
{
  "type": "node",
  "id": 660026458,
  "lat": 56.7572519,
  "lon": 37.1528464,
  "tags": {
    "amenity": "police",
    "name": "Отделение полиции",
    "phone": "+7 496 2123491"
  }
},
{
  "type": "node",
  "id": 660271300,
  "lat": 53.3411568,
  "lon": 83.7657120,
  "tags": {
    "amenity": "police",
    "name": "опорный пункт"
  }
},
{
  "type": "node",
  "id": 660403422,
  "lat": 55.9311503,
  "lon": 37.9968902,
  "tags": {
    "amenity": "police"
  }
},
{
  "type": "node",
  "id": 660468579,
  "lat": 55.9324734,
  "lon": 37.9980223,
  "tags": {
    "amenity": "police"
  }
},
{
  "type": "node",
  "id": 661032142,
  "lat": 67.4931172,
  "lon": 64.0747223,
  "tags": {
    "amenity": "police",
    "name": "ОМОН"
  }
},
{
  "type": "node",
  "id": 661041121,
  "lat": 54.5059776,
  "lon": 37.1084507,
  "tags": {
    "addr:city": "Алексин",
    "addr:country": "RU",
    "amenity": "police",
    "name": "МРЭО ГАИ"
  }
},
{
  "type": "node",
  "id": 662754347,
  "lat": 57.2444387,
  "lon": 40.1502546,
  "tags": {
    "amenity": "police",
    "name": "ДПС/Весовой контроль"
  }
},
{
  "type": "node",
  "id": 662755004,
  "lat": 57.0061782,
  "lon": 40.8460955,
  "tags": {
    "amenity": "police",
    "name": "Пост ДПС"
  }
},
{
  "type": "node",
  "id": 663652059,
  "lat": 55.8266720,
  "lon": 37.8983535,
  "tags": {
    "amenity": "police",
    "name": "ДПС"
  }
},
{
  "type": "node",
  "id": 663743110,
  "lat": 54.9715155,
  "lon": 82.8432381,
  "tags": {
    "amenity": "police"
  }
},
{
  "type": "node",
  "id": 663953115,
  "lat": 55.0395877,
  "lon": 82.9734875,
  "tags": {
    "amenity": "police"
  }
},
{
  "type": "node",
  "id": 665062283,
  "lat": 56.7605952,
  "lon": 60.7040641,
  "tags": {
    "amenity": "police",
    "name": "Отдел полиции Чкаловского РУВД"
  }
},
{
  "type": "node",
  "id": 665976877,
  "lat": 56.7674260,
  "lon": 54.1284950,
  "tags": {
    "amenity": "police",
    "name": "ГИБДД",
    "opening_hours": "Tu-Sa 09:00-13:00,14:00-18:00",
    "phone": "+7 34241 33319"
  }
},
{
  "type": "node",
  "id": 667213119,
  "lat": 53.7912607,
  "lon": 81.3464934,
  "tags": {
    "amenity": "police",
    "name": "УВД Камня-на-Оби"
  }
},
{
  "type": "node",
  "id": 668141520,
  "lat": 55.5743985,
  "lon": 36.6946312,
  "tags": {
    "amenity": "police",
    "name": "Кубинский городской отдел полиции"
  }
},
{
  "type": "node",
  "id": 668556783,
  "lat": 55.1164776,
  "lon": 61.6227324,
  "tags": {
    "amenity": "police",
    "name": "УВД г. Копейска"
  }
},
{
  "type": "node",
  "id": 668936562,
  "lat": 55.1236171,
  "lon": 83.0169323,
  "tags": {
    "amenity": "police",
    "name": "пост ДПС"
  }
},
{
  "type": "node",
  "id": 669631463,
  "lat": 53.2585593,
  "lon": 83.6951752,
  "tags": {
    "amenity": "police",
    "name": "пункт милиции"
  }
},
{
  "type": "node",
  "id": 669804310,
  "lat": 56.2057045,
  "lon": 42.6794780,
  "tags": {
    "amenity": "police",
    "name": "отдел полиции №4 (по Гороховецкому району)"
  }
},
{
  "type": "node",
  "id": 670209026,
  "lat": 55.0440230,
  "lon": 82.9203920,
  "tags": {
    "amenity": "police",
    "check_date": "2022-07-17",
    "name": "Отдел полиции №1, УВД Центрального района"
  }
},
{
  "type": "node",
  "id": 670251423,
  "lat": 55.3553451,
  "lon": 86.0879080,
  "tags": {
    "amenity": "police"
  }
},
{
  "type": "node",
  "id": 670717559,
  "lat": 54.9989776,
  "lon": 83.0082920,
  "tags": {
    "amenity": "police"
  }
},
{
  "type": "node",
  "id": 671012254,
  "lat": 57.5867954,
  "lon": 34.5681134,
  "tags": {
    "addr:street": "Рабочая улица",
    "amenity": "police",
    "name": "МРЭО"
  }
},
{
  "type": "node",
  "id": 671138783,
  "lat": 56.9831783,
  "lon": 60.5699262,
  "tags": {
    "addr:city": "Верхняя Пышма",
    "addr:housenumber": "34",
    "addr:street": "улица Уральских Рабочих",
    "amenity": "police",
    "name": "ОВД"
  }
},
{
  "type": "node",
  "id": 671207884,
  "lat": 66.5285585,
  "lon": 66.6232077,
  "tags": {
    "amenity": "police",
    "name": "УМВД РФ по ЯНАО"
  }
},
{
  "type": "node",
  "id": 671400506,
  "lat": 55.0752956,
  "lon": 82.9066469,
  "tags": {
    "amenity": "police",
    "name": "УВД Заельцовского района",
    "phone": "+7 383 2321002"
  }
},
{
  "type": "node",
  "id": 671588987,
  "lat": 43.7567543,
  "lon": 44.0165754,
  "tags": {
    "amenity": "police",
    "name": "ОВД"
  }
},
{
  "type": "node",
  "id": 672151575,
  "lat": 53.7714563,
  "lon": 38.1311119,
  "tags": {
    "addr:city": "Богородицк",
    "addr:housenumber": "65",
    "addr:street": "улица Коммунаров",
    "amenity": "police",
    "name": "РОВД Богородицк",
    "phone": "+7 48761 65018"
  }
},
{
  "type": "node",
  "id": 673045719,
  "lat": 55.0295416,
  "lon": 82.9794884,
  "tags": {
    "amenity": "police"
  }
},
{
  "type": "node",
  "id": 676480468,
  "lat": 55.1275794,
  "lon": 82.8965101,
  "tags": {
    "amenity": "police"
  }
},
{
  "type": "node",
  "id": 676642976,
  "lat": 45.0573377,
  "lon": 42.0917118,
  "tags": {
    "amenity": "police",
    "name": "ДПС"
  }
},
{
  "type": "node",
  "id": 677314735,
  "lat": 55.8571000,
  "lon": 37.4741200,
  "tags": {
    "amenity": "police",
    "contact:phone": "+7 499 7456205",
    "name": "Участковый пункт полиции №17"
  }
},
{
  "type": "node",
  "id": 678248810,
  "lat": 58.0823768,
  "lon": 55.8637099,
  "tags": {
    "amenity": "police"
  }
},
{
  "type": "node",
  "id": 678324952,
  "lat": 55.0166542,
  "lon": 82.9283796,
  "tags": {
    "amenity": "police",
    "name": "МРЭО Центрального района"
  }
},
{
  "type": "node",
  "id": 679649168,
  "lat": 53.2001863,
  "lon": 50.2217524,
  "tags": {
    "amenity": "police",
    "name": "оП №3"
  }
},
{
  "type": "node",
  "id": 683269024,
  "lat": 60.9618011,
  "lon": 46.4811818,
  "tags": {
    "amenity": "police"
  }
},
{
  "type": "node",
  "id": 684148052,
  "lat": 59.8395416,
  "lon": 30.2993940,
  "tags": {
    "amenity": "police",
    "name": "МРЭО № 3 Обособленное Подразделение"
  }
},
{
  "type": "node",
  "id": 686370191,
  "lat": 55.8088816,
  "lon": 38.9726039,
  "tags": {
    "amenity": "police",
    "name": "ФГУП \"Охрана\""
  }
},
{
  "type": "node",
  "id": 687536787,
  "lat": 53.3423924,
  "lon": 83.6675739,
  "tags": {
    "amenity": "police",
    "name": "Участковый"
  }
},
{
  "type": "node",
  "id": 688508533,
  "lat": 56.8731670,
  "lon": 53.2874305,
  "tags": {
    "amenity": "police"
  }
},
{
  "type": "node",
  "id": 688826362,
  "lat": 56.0263601,
  "lon": 35.4944048,
  "tags": {
    "amenity": "police",
    "name": "ГИБДД"
  }
},
{
  "type": "node",
  "id": 690278418,
  "lat": 57.9962020,
  "lon": 56.1369689,
  "tags": {
    "amenity": "police",
    "name": "Участковый отдел милиции"
  }
},
{
  "type": "node",
  "id": 690995743,
  "lat": 56.5110372,
  "lon": 57.2098163,
  "tags": {
    "amenity": "police",
    "name": "Полиция"
  }
},
{
  "type": "node",
  "id": 691225489,
  "lat": 56.4781314,
  "lon": 53.8182568,
  "tags": {
    "amenity": "police",
    "name": "ГИБДД, ОВО"
  }
},
{
  "type": "node",
  "id": 691584158,
  "lat": 56.7349808,
  "lon": 38.8553282,
  "tags": {
    "amenity": "police",
    "name": "ГИБДД Переславского ОВД"
  }
},
{
  "type": "node",
  "id": 691746484,
  "lat": 56.4739055,
  "lon": 53.8156044,
  "tags": {
    "amenity": "police"
  }
},
{
  "type": "node",
  "id": 692835469,
  "lat": 55.8261772,
  "lon": 37.4490138,
  "tags": {
    "addr:city": "Москва",
    "addr:country": "RU",
    "addr:housenumber": "9 к3",
    "addr:street": "Тушинская улица",
    "amenity": "police",
    "name": "Межрайонный Отдел Вневедомственной Охраны УВД СЗАО"
  }
},
{
  "type": "node",
  "id": 695107390,
  "lat": 42.9598942,
  "lon": 132.4309252,
  "tags": {
    "amenity": "police",
    "name": "Стационарный пост ДПС",
    "name:en": "Police station",
    "name:ru": "Стационарный пост ДПС"
  }
},
{
  "type": "node",
  "id": 695380173,
  "lat": 50.8770094,
  "lon": 39.0687656,
  "tags": {
    "amenity": "police",
    "name": "ГИБДД"
  }
},
{
  "type": "node",
  "id": 696300130,
  "lat": 56.8277760,
  "lon": 60.6279791,
  "tags": {
    "amenity": "police",
    "name": "Отдел полиции № 7",
    "ref": "7"
  }
},
{
  "type": "node",
  "id": 697057339,
  "lat": 55.8032876,
  "lon": 38.9755197,
  "tags": {
    "amenity": "police",
    "name": "1 городской отдел милиции"
  }
},
{
  "type": "node",
  "id": 697270995,
  "lat": 66.5408163,
  "lon": 66.6334109,
  "tags": {
    "amenity": "police",
    "name": "ГОВД"
  }
},
{
  "type": "node",
  "id": 697270996,
  "lat": 66.5411567,
  "lon": 66.6307294,
  "tags": {
    "amenity": "police",
    "name": "ГИБДД"
  }
},
{
  "type": "node",
  "id": 697285547,
  "lat": 55.4834325,
  "lon": 37.3077820,
  "tags": {
    "amenity": "police",
    "level": "2",
    "name": "Межрайонный отдел ГИБДД технического надзора и регистрации экзаменационной работы №5"
  }
},
{
  "type": "node",
  "id": 698091846,
  "lat": 44.3176465,
  "lon": 38.6997162,
  "tags": {
    "amenity": "police",
    "name": "Полиция"
  }
},
{
  "type": "node",
  "id": 698824719,
  "lat": 55.6702163,
  "lon": 36.5241613,
  "tags": {
    "amenity": "police",
    "description": "Милицейский участок Колюбакино"
  }
},
{
  "type": "node",
  "id": 699384163,
  "lat": 43.1216371,
  "lon": 132.4026542,
  "tags": {
    "amenity": "police",
    "name": "Стационарный пост ДПС",
    "name:en": "Road police post",
    "name:ru": "Стационарный пост ДПС"
  }
},
{
  "type": "node",
  "id": 699411519,
  "lat": 42.8867524,
  "lon": 132.8888914,
  "tags": {
    "amenity": "police",
    "name": "Стационарный пост ДПС",
    "name:en": "Police station",
    "name:ru": "Стационарный пост ДПС"
  }
},
{
  "type": "node",
  "id": 700233648,
  "lat": 55.8872640,
  "lon": 48.3605824,
  "tags": {
    "amenity": "police",
    "name": "ГИБДД"
  }
},
{
  "type": "node",
  "id": 701190188,
  "lat": 61.6932793,
  "lon": 50.8077835,
  "tags": {
    "amenity": "police",
    "name": "Городской отдел милиции г. Сыктывкара"
  }
},
{
  "type": "node",
  "id": 702113883,
  "lat": 55.5650974,
  "lon": 37.5763692,
  "tags": {
    "amenity": "police",
    "name": "Пункт Милиции"
  }
},
{
  "type": "node",
  "id": 702237642,
  "lat": 55.9665963,
  "lon": 37.7713919,
  "tags": {
    "access": "private",
    "amenity": "police",
    "barrier": "lift_gate",
    "bicycle": "no",
    "foot": "no",
    "name": "КПП"
  }
},
{
  "type": "node",
  "id": 702907038,
  "lat": 55.7307807,
  "lon": 52.3760520,
  "tags": {
    "amenity": "police",
    "name": "Опорный пункт полиции"
  }
},
{
  "type": "node",
  "id": 702907042,
  "lat": 55.7339372,
  "lon": 52.3728239,
  "tags": {
    "amenity": "police",
    "name": "Опорный пункт полиции"
  }
},
{
  "type": "node",
  "id": 702907049,
  "lat": 55.7167217,
  "lon": 52.3788714,
  "tags": {
    "amenity": "police",
    "name": "Опорный пункт полиции"
  }
},
{
  "type": "node",
  "id": 703545373,
  "lat": 55.8555353,
  "lon": 48.3755960,
  "tags": {
    "amenity": "police",
    "name": "РОВД"
  }
},
{
  "type": "node",
  "id": 703838215,
  "lat": 55.7281154,
  "lon": 52.4043767,
  "tags": {
    "amenity": "police",
    "name": "Опорный пункт полиции"
  }
},
{
  "type": "node",
  "id": 703838222,
  "lat": 55.7366304,
  "lon": 52.4167089,
  "tags": {
    "amenity": "police",
    "name": "Опорный пункт полиции",
    "old_name": "УПМ 4, 5, 6"
  }
},
{
  "type": "node",
  "id": 703838229,
  "lat": 55.7310549,
  "lon": 52.3977558,
  "tags": {
    "amenity": "police",
    "name": "Опорный пункт полиции"
  }
},
{
  "type": "node",
  "id": 703838231,
  "lat": 55.7208413,
  "lon": 52.3955829,
  "tags": {
    "amenity": "police",
    "name": "Опорный пункт полиции"
  }
},
{
  "type": "node",
  "id": 703838234,
  "lat": 55.7357504,
  "lon": 52.3870806,
  "tags": {
    "amenity": "police",
    "contact:phone": "+7 8552 589757",
    "name": "Опорный пункт полиции"
  }
},
{
  "type": "node",
  "id": 703884834,
  "lat": 50.1939547,
  "lon": 39.5700425,
  "tags": {
    "addr:city": "Россошь",
    "amenity": "police",
    "name": "ГРОВД"
  }
},
{
  "type": "node",
  "id": 705273599,
  "lat": 45.2168750,
  "lon": 39.2263909,
  "tags": {
    "amenity": "police"
  }
},
{
  "type": "node",
  "id": 706105460,
  "lat": 53.7600119,
  "lon": 34.8079896,
  "tags": {
    "amenity": "police",
    "name": "Стационарный пост ДПС"
  }
},
{
  "type": "node",
  "id": 706158796,
  "lat": 54.3851856,
  "lon": 56.1774802,
  "tags": {
    "amenity": "police",
    "name": "ДПС"
  }
},
{
  "type": "node",
  "id": 706968806,
  "lat": 54.5436759,
  "lon": 39.8384671,
  "tags": {
    "amenity": "police",
    "name": "Пост ДПС"
  }
},
{
  "type": "node",
  "id": 707279440,
  "lat": 61.6889933,
  "lon": 50.8162656,
  "tags": {
    "amenity": "police",
    "name": "Печорский участковый пункт полиции"
  }
},
{
  "type": "node",
  "id": 708439385,
  "lat": 57.7323633,
  "lon": 56.1726956,
  "tags": {
    "amenity": "police"
  }
},
{
  "type": "node",
  "id": 708514739,
  "lat": 55.0346641,
  "lon": 82.8898020,
  "tags": {
    "amenity": "police",
    "name": "Отдельный батальон ППС"
  }
},
{
  "type": "node",
  "id": 708589173,
  "lat": 45.0595356,
  "lon": 34.5970953,
  "tags": {
    "addr:housenumber": "36",
    "addr:street": "Симферопольская улица",
    "amenity": "police",
    "name": "Белогорский РОВД",
    "name:uk": "Білогірський РВВС"
  }
},
{
  "type": "node",
  "id": 712939547,
  "lat": 55.8044528,
  "lon": 37.8390650,
  "tags": {
    "amenity": "police",
    "name": "ДПС"
  }
},
{
  "type": "node",
  "id": 717472764,
  "lat": 50.4015589,
  "lon": 42.8883407,
  "tags": {
    "amenity": "police",
    "name": "Панфиловское отделение милиции"
  }
},
{
  "type": "node",
  "id": 720070565,
  "lat": 53.7310011,
  "lon": 127.2537958,
  "tags": {
    "amenity": "police"
  }
},
{
  "type": "node",
  "id": 720609560,
  "lat": 57.3601246,
  "lon": 61.3942560,
  "tags": {
    "amenity": "police"
  }
},
{
  "type": "node",
  "id": 720666274,
  "lat": 57.3432119,
  "lon": 61.3407799,
  "tags": {
    "amenity": "police"
  }
},
{
  "type": "node",
  "id": 722826665,
  "lat": 54.8189491,
  "lon": 38.0472078,
  "tags": {
    "amenity": "police",
    "name": "ДПС",
    "source": "voice"
  }
},
{
  "type": "node",
  "id": 722867588,
  "lat": 54.2432057,
  "lon": 39.0583033,
  "tags": {
    "amenity": "police",
    "name": "КПМ",
    "operator": "Министерство Внутренних Дел",
    "operator:en": "Ministry of Internal Affairs",
    "operator:short": "МВД",
    "operator:wikidata": "Q1192838",
    "operator:wikipedia": "en:Ministry of Internal Affairs (Russia)",
    "source": "voice"
  }
},
{
  "type": "node",
  "id": 722872354,
  "lat": 53.8376565,
  "lon": 39.6436885,
  "tags": {
    "amenity": "police",
    "name": "ДПС"
  }
},
{
  "type": "node",
  "id": 722926300,
  "lat": 54.9400943,
  "lon": 36.9151028,
  "tags": {
    "amenity": "police",
    "name": "ДПС"
  }
},
{
  "type": "node",
  "id": 725894866,
  "lat": 58.2872744,
  "lon": 59.7546544,
  "tags": {
    "amenity": "police"
  }
},
{
  "type": "node",
  "id": 727270419,
  "lat": 50.1987091,
  "lon": 39.5412636,
  "tags": {
    "amenity": "police",
    "name": "Стакан доверия"
  }
},
{
  "type": "node",
  "id": 727270420,
  "lat": 50.1963828,
  "lon": 39.5803893,
  "tags": {
    "amenity": "police",
    "name": "Стакан доверия"
  }
},
{
  "type": "node",
  "id": 727497506,
  "lat": 55.5916963,
  "lon": 37.2889386,
  "tags": {
    "amenity": "police",
    "name": "ДПС"
  }
},
{
  "type": "node",
  "id": 727533890,
  "lat": 63.1970473,
  "lon": 74.6104539,
  "tags": {
    "amenity": "police",
    "name": "Пост ДПС \"Карамовский\""
  }
},
{
  "type": "node",
  "id": 728175052,
  "lat": 56.7014265,
  "lon": 38.7832302,
  "tags": {
    "amenity": "police",
    "name": "КПМ ДПС"
  }
},
{
  "type": "node",
  "id": 728267100,
  "lat": 44.7768907,
  "lon": 44.1603299,
  "tags": {
    "amenity": "police",
    "name": "Районная отдел милиции"
  }
},
{
  "type": "node",
  "id": 728349946,
  "lat": 56.1057089,
  "lon": 40.2994759,
  "tags": {
    "amenity": "police",
    "name": "ДПС"
  }
},
{
  "type": "node",
  "id": 728373297,
  "lat": 67.5861603,
  "lon": 63.7910536,
  "tags": {
    "amenity": "police",
    "name": "Воргашорский ОМ",
    "opening_hours": "закрыто навсегда"
  }
},
{
  "type": "node",
  "id": 731242331,
  "lat": 56.8679629,
  "lon": 60.5522650,
  "tags": {
    "amenity": "police"
  }
},
{
  "type": "node",
  "id": 734099879,
  "lat": 54.1195927,
  "lon": 35.2611666,
  "tags": {
    "amenity": "police",
    "name": "ДПС"
  }
},
{
  "type": "node",
  "id": 736279368,
  "lat": 53.1986698,
  "lon": 34.5238232,
  "tags": {
    "amenity": "police",
    "name": "ДПС"
  }
},
{
  "type": "node",
  "id": 736602333,
  "lat": 52.1438032,
  "lon": 34.4716516,
  "tags": {
    "amenity": "police",
    "name": "ДПС"
  }
},
{
  "type": "node",
  "id": 736864184,
  "lat": 67.5731302,
  "lon": 63.8034221,
  "tags": {
    "amenity": "police",
    "name": "ДПС"
  }
},
{
  "type": "node",
  "id": 737146638,
  "lat": 55.2456817,
  "lon": 37.6296738,
  "tags": {
    "amenity": "police",
    "name": "Территориальный отдел милиции"
  }
},
{
  "type": "node",
  "id": 737219229,
  "lat": 58.7433373,
  "lon": 27.8219766,
  "tags": {
    "amenity": "police",
    "name": "ОВД"
  }
},
{
  "type": "node",
  "id": 737337248,
  "lat": 66.0439079,
  "lon": 57.6032305,
  "tags": {
    "amenity": "police",
    "name": "Нулевой пикет"
  }
},
{
  "type": "node",
  "id": 738047070,
  "lat": 51.6090567,
  "lon": 45.9958297,
  "tags": {
    "amenity": "police"
  }
},
{
  "type": "node",
  "id": 738195247,
  "lat": 55.1300600,
  "lon": 54.6847248,
  "tags": {
    "amenity": "police",
    "description": "стац.пост ДПС"
  }
},
{
  "type": "node",
  "id": 741981578,
  "lat": 54.2344453,
  "lon": 49.5630281,
  "tags": {
    "addr:city": "Димитровград",
    "addr:housenumber": "6",
    "addr:street": "улица М. Тореза",
    "amenity": "police",
    "name": "Федеральная служба судебных приставов"
  }
},
{
  "type": "node",
  "id": 743297133,
  "lat": 51.7332844,
  "lon": 36.1943146,
  "tags": {
    "amenity": "police",
    "name": "УМВД России по Курской области"
  }
},
{
  "type": "node",
  "id": 743313251,
  "lat": 55.9139871,
  "lon": 38.0009099,
  "tags": {
    "amenity": "police"
  }
},
{
  "type": "node",
  "id": 747074910,
  "lat": 55.6905287,
  "lon": 37.8733658,
  "tags": {
    "addr:city": "Люберцы",
    "addr:country": "RU",
    "addr:housenumber": "91",
    "addr:place": "посёлок Калинина",
    "addr:postcode": "140002",
    "amenity": "police",
    "name": "Участковое отделение милиции"
  }
},
{
  "type": "node",
  "id": 747670738,
  "lat": 55.7791973,
  "lon": 48.8401662,
  "tags": {
    "amenity": "police",
    "name": "ДПС"
  }
},
{
  "type": "node",
  "id": 747728691,
  "lat": 55.7213704,
  "lon": 37.8094189,
  "tags": {
    "amenity": "police",
    "name": "ОВД района Вешняки"
  }
},
{
  "type": "node",
  "id": 748724543,
  "lat": 57.1148461,
  "lon": 65.5814568,
  "tags": {
    "amenity": "police",
    "name": "ОП-1"
  }
},
{
  "type": "node",
  "id": 749932142,
  "lat": 55.4571926,
  "lon": 37.5064032,
  "tags": {
    "amenity": "police"
  }
},
{
  "type": "node",
  "id": 750451621,
  "lat": 58.1057820,
  "lon": 56.3066136,
  "tags": {
    "amenity": "police",
    "name": "Отдел полиции №5, Орджоникидзевский район",
    "operator": "Полиция России",
    "operator:en": "Police of Russia",
    "operator:wikidata": "Q1188211"
  }
},
{
  "type": "node",
  "id": 752192457,
  "lat": 58.5147750,
  "lon": 39.1010699,
  "tags": {
    "amenity": "police",
    "name": "ДПС/Весовой контроль"
  }
},
{
  "type": "node",
  "id": 752272707,
  "lat": 56.6453561,
  "lon": 36.2846199,
  "tags": {
    "amenity": "police",
    "name": "Редкинское отделение полиции (693-002)"
  }
},
{
  "type": "node",
  "id": 755684776,
  "lat": 43.0406235,
  "lon": 44.6711813,
  "tags": {
    "amenity": "police",
    "name": "Отдел №1 ГУВД г.Владикавказ"
  }
},
{
  "type": "node",
  "id": 757216149,
  "lat": 55.8662408,
  "lon": 37.4419479,
  "tags": {
    "addr:city": "Москва",
    "addr:country": "RU",
    "addr:housenumber": "89 к5",
    "addr:street": "улица Свободы",
    "amenity": "police",
    "name": "Общественный пункт охраны порядка №8 ОВД района Северное Тушино",
    "phone": "+7 495 4954167"
  }
},
{
  "type": "node",
  "id": 760524928,
  "lat": 46.0317328,
  "lon": 43.4447994,
  "tags": {
    "amenity": "police",
    "name": "Пост ГАИ"
  }
},
{
  "type": "node",
  "id": 760524934,
  "lat": 46.0038383,
  "lon": 43.4304228,
  "tags": {
    "amenity": "police",
    "name": "Пост ГАИ"
  }
},
{
  "type": "node",
  "id": 761750434,
  "lat": 51.7191233,
  "lon": 39.1746879,
  "tags": {
    "amenity": "police",
    "name": "Участковый пункт полиции №22",
    "operator": "Отдел полиции №4 УМВД России по городу Воронежу",
    "phone": "+7 473 2744286",
    "ref": "22"
  }
},
{
  "type": "node",
  "id": 761881091,
  "lat": 61.0452231,
  "lon": 69.3159065,
  "tags": {
    "amenity": "police",
    "name": "ДПС"
  }
},
{
  "type": "node",
  "id": 762014414,
  "lat": 56.8731944,
  "lon": 35.9000755,
  "tags": {
    "amenity": "police",
    "name": "Заволжский отдел полиции"
  }
},
{
  "type": "node",
  "id": 762151518,
  "lat": 51.6735565,
  "lon": 39.2062321,
  "tags": {
    "amenity": "police",
    "name": "Отдел полиции №6 УМВД России по городу Воронежу",
    "phone": "+7 473 2696900",
    "ref": "6"
  }
},
{
  "type": "node",
  "id": 762672360,
  "lat": 59.2051409,
  "lon": 39.8224250,
  "tags": {
    "addr:housenumber": "66",
    "addr:street": "улица Гагарина",
    "amenity": "police",
    "name": "ГИБДД УВД г. Вологда"
  }
},
{
  "type": "node",
  "id": 762672583,
  "lat": 59.2038380,
  "lon": 39.8225630,
  "tags": {
    "amenity": "police",
    "name": "Mreo"
  }
},
{
  "type": "node",
  "id": 762673389,
  "lat": 59.2260924,
  "lon": 39.9135165,
  "tags": {
    "addr:housenumber": "6",
    "addr:street": "улица Саммера",
    "amenity": "police",
    "name": "ГИБДД УВД по Вологодской области"
  }
},
{
  "type": "node",
  "id": 763610602,
  "lat": 59.0494114,
  "lon": 57.6479107,
  "tags": {
    "amenity": "police",
    "name": "ОВД"
  }
},
{
  "type": "node",
  "id": 764074435,
  "lat": 53.2332705,
  "lon": 50.2456644,
  "tags": {
    "amenity": "police",
    "name": "Кировкий РОВД"
  }
},
{
  "type": "node",
  "id": 764552285,
  "lat": 55.8339789,
  "lon": 37.4937544,
  "tags": {
    "amenity": "police",
    "name": "УВД по САО г. Москвы"
  }
},
{
  "type": "node",
  "id": 764853013,
  "lat": 46.3231605,
  "lon": 39.4002032,
  "tags": {
    "amenity": "police",
    "name": "РОВД"
  }
},
{
  "type": "node",
  "id": 766823837,
  "lat": 51.5512598,
  "lon": 39.1347163,
  "tags": {
    "amenity": "police"
  }
},
{
  "type": "node",
  "id": 767402247,
  "lat": 60.3338958,
  "lon": 49.6203024,
  "tags": {
    "amenity": "police",
    "name": "Прокуратура"
  }
},
{
  "type": "node",
  "id": 767402452,
  "lat": 60.3329154,
  "lon": 49.6147339,
  "tags": {
    "amenity": "police",
    "name": "ОВД Прилузского района"
  }
},
{
  "type": "node",
  "id": 769222289,
  "lat": 55.0338393,
  "lon": 82.9231200,
  "tags": {
    "amenity": "police",
    "name": "Участковый пункт полиции"
  }
},
{
  "type": "node",
  "id": 771144236,
  "lat": 51.2081898,
  "lon": 36.2689399,
  "tags": {
    "amenity": "police",
    "name": "Прокуратура Обоянского района"
  }
},
{
  "type": "node",
  "id": 772614193,
  "lat": 54.1716878,
  "lon": 45.1346729,
  "tags": {
    "amenity": "police",
    "name": "Участок № 2"
  }
},
{
  "type": "node",
  "id": 773265927,
  "lat": 59.8945848,
  "lon": 30.2800040,
  "tags": {
    "amenity": "police"
  }
},
{
  "type": "node",
  "id": 773500331,
  "lat": 59.9124630,
  "lon": 30.4993687,
  "tags": {
    "amenity": "police",
    "name": "Отдел полиции №70 ГУВД Санкт-Петербурга и Ленинградской области"
  }
},
{
  "type": "node",
  "id": 773500352,
  "lat": 59.9126542,
  "lon": 30.4991844,
  "tags": {
    "amenity": "police",
    "name": "Отдел полиции №23 ГУВД Санкт-Петербурга и Ленинградской области"
  }
},
{
  "type": "node",
  "id": 773680212,
  "lat": 60.6986804,
  "lon": 60.4201747,
  "tags": {
    "amenity": "police",
    "name": "ОВД по Ивдельскому району"
  }
},
{
  "type": "node",
  "id": 774785263,
  "lat": 56.2600070,
  "lon": 35.9154996,
  "tags": {
    "amenity": "police"
  }
},
{
  "type": "node",
  "id": 776510550,
  "lat": 52.6692169,
  "lon": 35.7322599,
  "tags": {
    "amenity": "police",
    "name": "ДПС"
  }
},
{
  "type": "node",
  "id": 778921043,
  "lat": 54.4593202,
  "lon": 38.7308489,
  "tags": {
    "amenity": "police",
    "name": "ГИБДД"
  }
},
{
  "type": "node",
  "id": 779623770,
  "lat": 52.6447527,
  "lon": 39.6902105,
  "tags": {
    "amenity": "police",
    "name": "Пост ДПС"
  }
},
{
  "type": "node",
  "id": 780800997,
  "lat": 55.1741645,
  "lon": 36.6729019,
  "tags": {
    "amenity": "police",
    "name": "ДПС"
  }
},
{
  "type": "node",
  "id": 782911789,
  "lat": 55.6704978,
  "lon": 37.4636034,
  "tags": {
    "addr:full": "Мичуринский пр-т, д. 20, к. 1 (Олимпийская деревня)",
    "amenity": "police",
    "name": "Отдел по борьбе с организованной преступностью"
  }
},
{
  "type": "node",
  "id": 783143274,
  "lat": 45.7577039,
  "lon": 42.8188380,
  "tags": {
    "amenity": "police",
    "name": "ГАИ"
  }
},
{
  "type": "node",
  "id": 783815526,
  "lat": 55.5974079,
  "lon": 37.3576429,
  "tags": {
    "amenity": "police",
    "name": "Межмуниципальный отдел МВД \"Московский\"",
    "phone": "+7 495 8418002",
    "source": "Moskovskiy map. http://www.dukess.ru"
  }
},
{
  "type": "node",
  "id": 784878314,
  "lat": 60.6983764,
  "lon": 60.4186735,
  "tags": {
    "amenity": "police"
  }
},
{
  "type": "node",
  "id": 785355847,
  "lat": 45.3807109,
  "lon": 41.7142439,
  "tags": {
    "amenity": "police",
    "name": "Изобильненский РОВД"
  }
},
{
  "type": "node",
  "id": 785515208,
  "lat": 45.3598083,
  "lon": 41.6921403,
  "tags": {
    "amenity": "police",
    "name": "МРЭО"
  }
},
{
  "type": "node",
  "id": 785623899,
  "lat": 45.3643055,
  "lon": 41.7164288,
  "tags": {
    "amenity": "police",
    "name": "Рота ДПС ГИБДД"
  }
},
{
  "type": "node",
  "id": 785628899,
  "lat": 45.3785494,
  "lon": 41.7187844,
  "tags": {
    "amenity": "police",
    "name": "ГИБДД"
  }
},
{
  "type": "node",
  "id": 785630696,
  "lat": 45.3808602,
  "lon": 41.7123701,
  "tags": {
    "amenity": "police",
    "name": "ВОХР"
  }
},
{
  "type": "node",
  "id": 786573256,
  "lat": 59.8284453,
  "lon": 30.1570809,
  "tags": {
    "amenity": "police",
    "name": "Участковый пункт №5",
    "official_name": "Отделение милиции № 84 Участковый Пункт Милиции (УПМ) Упм № 5"
  }
},
{
  "type": "node",
  "id": 789481856,
  "lat": 69.0092998,
  "lon": 33.1034218,
  "tags": {
    "amenity": "police",
    "name": "Отдел полиции №2 УМВД России по г.Мурманску"
  }
},
{
  "type": "node",
  "id": 791067028,
  "lat": 50.7095696,
  "lon": 38.6537784,
  "tags": {
    "amenity": "police",
    "name": "ДПС"
  }
},
{
  "type": "node",
  "id": 792251126,
  "lat": 59.8308487,
  "lon": 30.2547934,
  "tags": {
    "amenity": "police",
    "name": "ДПС"
  }
},
{
  "type": "node",
  "id": 792277903,
  "lat": 59.8210426,
  "lon": 30.4165990,
  "tags": {
    "amenity": "police",
    "name": "Пост ДПС",
    "police": "traffic_police"
  }
},
{
  "type": "node",
  "id": 792278311,
  "lat": 59.9286767,
  "lon": 30.2448111,
  "tags": {
    "amenity": "police",
    "check_date": "2023-09-04",
    "name": "Участковый пункт полиции №37/8",
    "note": "также вторая суббота и четвёртое воскресенье месяца 12:00-14:00",
    "opening_hours": "Tu 18:00-20:00; Th 18:00-20:00"
  }
},
{
  "type": "node",
  "id": 793741393,
  "lat": 55.9216234,
  "lon": 37.9739298,
  "tags": {
    "amenity": "police"
  }
},
{
  "type": "node",
  "id": 793742889,
  "lat": 55.9270400,
  "lon": 38.0085605,
  "tags": {
    "amenity": "police"
  }
},
{
  "type": "node",
  "id": 795825368,
  "lat": 55.3906798,
  "lon": 37.5491389,
  "tags": {
    "amenity": "police",
    "name": "ДПС"
  }
},
{
  "type": "node",
  "id": 797197347,
  "lat": 46.9376643,
  "lon": 39.7103574,
  "tags": {
    "amenity": "police",
    "name": "Пост ДПС"
  }
},
{
  "type": "node",
  "id": 797813120,
  "lat": 51.2752301,
  "lon": 37.5373429,
  "tags": {
    "addr:housenumber": "13",
    "addr:postcode": "309186",
    "addr:street": "улица Дзержинского",
    "amenity": "police",
    "name": "Полиция",
    "phone": "+7 47241 76303;+7 47241 51655",
    "website": "http://gubkin.mvd31.ru"
  }
},
{
  "type": "node",
  "id": 797813273,
  "lat": 55.8895285,
  "lon": 37.6547913,
  "tags": {
    "amenity": "police",
    "name": "ОВД района Медведково"
  }
},
{
  "type": "node",
  "id": 798956914,
  "lat": 58.1147379,
  "lon": 30.3275617,
  "tags": {
    "amenity": "police",
    "name": "ГИБДД"
  }
},
{
  "type": "node",
  "id": 800301908,
  "lat": 47.1530632,
  "lon": 39.4533880,
  "tags": {
    "amenity": "police"
  }
},
{
  "type": "node",
  "id": 803916906,
  "lat": 59.9271792,
  "lon": 30.3272980,
  "tags": {
    "amenity": "police",
    "name": "Участковый пункт полиции",
    "opening_hours": "Tu,Th 18:00-20:00; Sa[2],Su[4] 12:00-14:00",
    "operator": "Полиция России",
    "operator:en": "Police of Russia",
    "operator:wikidata": "Q1188211"
  }
},
{
  "type": "node",
  "id": 804261931,
  "lat": 47.2124037,
  "lon": 38.9367605,
  "tags": {
    "amenity": "police"
  }
},
{
  "type": "node",
  "id": 804713426,
  "lat": 55.6207179,
  "lon": 37.4731950,
  "tags": {
    "amenity": "police"
  }
},
{
  "type": "node",
  "id": 805596964,
  "lat": 68.8895038,
  "lon": 33.0980258,
  "tags": {
    "addr:city": "Мурманск",
    "addr:housenumber": "46",
    "addr:street": "улица Героев Рыбачьего",
    "amenity": "police",
    "contact:phone": "+7 8152 573014",
    "name": "Опорный пункт"
  }
},
{
  "type": "node",
  "id": 805606002,
  "lat": 47.2216145,
  "lon": 38.9057747,
  "tags": {
    "amenity": "police"
  }
},
{
  "type": "node",
  "id": 805608451,
  "lat": 47.2237607,
  "lon": 38.8827075,
  "tags": {
    "amenity": "police",
    "name": "Отделение 3 ОУФМС России по Ростовской области в Таганроге"
  }
},
{
  "type": "node",
  "id": 812090981,
  "lat": 47.2162901,
  "lon": 38.9294714,
  "tags": {
    "amenity": "police",
    "name": "ФСБ"
  }
},
{
  "type": "node",
  "id": 814606400,
  "lat": 50.5278576,
  "lon": 42.6750900,
  "tags": {
    "amenity": "police"
  }
},
{
  "type": "node",
  "id": 817548430,
  "lat": 54.2055915,
  "lon": 37.6636699,
  "tags": {
    "amenity": "police",
    "name": "УВД Пролетарского района г. Тулы"
  }
},
{
  "type": "node",
  "id": 819639337,
  "lat": 47.8132478,
  "lon": 38.9064015,
  "tags": {
    "amenity": "police"
  }
},
{
  "type": "node",
  "id": 820442737,
  "lat": 55.6044309,
  "lon": 38.8686616,
  "tags": {
    "amenity": "police"
  }
},
{
  "type": "node",
  "id": 824321378,
  "lat": 55.5770768,
  "lon": 38.8991524,
  "tags": {
    "amenity": "police",
    "name": "Полиция"
  }
},
{
  "type": "node",
  "id": 827290920,
  "lat": 56.2285190,
  "lon": 35.6405801,
  "tags": {
    "amenity": "police",
    "name": "Лотошинский РОВД"
  }
},
{
  "type": "node",
  "id": 828516103,
  "lat": 45.1174691,
  "lon": 39.4197644,
  "tags": {
    "amenity": "police"
  }
},
{
  "type": "node",
  "id": 829903384,
  "lat": 57.9995682,
  "lon": 56.2902408,
  "tags": {
    "amenity": "police"
  }
},
{
  "type": "node",
  "id": 835489756,
  "lat": 50.8148327,
  "lon": 42.0206357,
  "tags": {
    "amenity": "police"
  }
},
{
  "type": "node",
  "id": 835526682,
  "lat": 50.4138573,
  "lon": 41.7639751,
  "tags": {
    "amenity": "police"
  }
},
{
  "type": "node",
  "id": 837188067,
  "lat": 57.9568803,
  "lon": 56.1289887,
  "tags": {
    "amenity": "police"
  }
},
{
  "type": "node",
  "id": 838393058,
  "lat": 56.8319793,
  "lon": 60.6100449,
  "tags": {
    "amenity": "police",
    "name": "ОВД Ленинского района"
  }
},
{
  "type": "node",
  "id": 839188543,
  "lat": 44.5783108,
  "lon": 33.7525647,
  "tags": {
    "amenity": "police"
  }
},
{
  "type": "node",
  "id": 840227970,
  "lat": 59.9087455,
  "lon": 31.0089489,
  "tags": {
    "amenity": "police",
    "name": "Пост ДПС",
    "police": "traffic_police"
  }
},
{
  "type": "node",
  "id": 842067778,
  "lat": 58.4911791,
  "lon": 49.2008208,
  "tags": {
    "amenity": "police"
  }
},
{
  "type": "node",
  "id": 843324052,
  "lat": 43.5917927,
  "lon": 40.9423562,
  "tags": {
    "amenity": "police",
    "name": "Погран. Застава"
  }
},
{
  "type": "node",
  "id": 845322148,
  "lat": 52.8970748,
  "lon": 35.9810736,
  "tags": {
    "amenity": "police"
  }
},
{
  "type": "node",
  "id": 845999105,
  "lat": 55.7236503,
  "lon": 37.3823261,
  "tags": {
    "amenity": "police",
    "name": "пост ДПС"
  }
},
{
  "type": "node",
  "id": 848337552,
  "lat": 50.5522594,
  "lon": 136.9901908,
  "tags": {
    "amenity": "police"
  }
},
{
  "type": "node",
  "id": 848595884,
  "lat": 50.6007658,
  "lon": 137.0425790,
  "tags": {
    "amenity": "police",
    "name": "Отдел полиции №4"
  }
},
{
  "type": "node",
  "id": 849771018,
  "lat": 54.2168667,
  "lon": 49.6250378,
  "tags": {
    "addr:city": "Димитровград",
    "addr:housenumber": "14А",
    "addr:street": "улица Гагарина",
    "amenity": "police",
    "name": "МО МВД России Димитровградский"
  }
},
{
  "type": "node",
  "id": 849779364,
  "lat": 54.2119365,
  "lon": 49.6203452,
  "tags": {
    "amenity": "police"
  }
},
{
  "type": "node",
  "id": 851242943,
  "lat": 58.0040563,
  "lon": 60.4205667,
  "tags": {
    "amenity": "police",
    "name": "пост ППС"
  }
},
{
  "type": "node",
  "id": 851953067,
  "lat": 56.3743530,
  "lon": 38.5861861,
  "tags": {
    "amenity": "police",
    "name": "Отделение полиции #7 города Струнино"
  }
},
{
  "type": "node",
  "id": 852398397,
  "lat": 53.6867840,
  "lon": 88.0733455,
  "tags": {
    "amenity": "police",
    "name": "Прокуратура"
  }
},
{
  "type": "node",
  "id": 854652767,
  "lat": 48.5150077,
  "lon": 44.5101464,
  "tags": {
    "amenity": "police",
    "name": "Пост ДПС"
  }
},
{
  "type": "node",
  "id": 854984287,
  "lat": 52.7699540,
  "lon": 32.2148233,
  "tags": {
    "amenity": "police",
    "name": "ГИБДД, ДСАФ"
  }
},
{
  "type": "node",
  "id": 856468228,
  "lat": 48.2301617,
  "lon": 41.3163319,
  "tags": {
    "amenity": "police",
    "name": "ДПС"
  }
},
{
  "type": "node",
  "id": 856555952,
  "lat": 57.7656497,
  "lon": 108.0700447,
  "tags": {
    "amenity": "police",
    "name": "ГИБДД"
  }
},
{
  "type": "node",
  "id": 857952157,
  "lat": 47.2660246,
  "lon": 39.8614678,
  "tags": {
    "amenity": "police",
    "name": "Детская комната"
  }
},
{
  "type": "node",
  "id": 864148605,
  "lat": 51.6037170,
  "lon": 36.2539892,
  "tags": {
    "amenity": "police",
    "name": "Участковый пункт милиции"
  }
},
{
  "type": "node",
  "id": 864606188,
  "lat": 57.0161855,
  "lon": 39.2562771,
  "tags": {
    "amenity": "police",
    "name": "ГИБДД"
  }
},
{
  "type": "node",
  "id": 864818990,
  "lat": 51.6464478,
  "lon": 39.4155937,
  "tags": {
    "addr:city": "Новая Усмань",
    "addr:housenumber": "303",
    "addr:street": "улица Ленина",
    "amenity": "police",
    "name": "ГИБДД, Новая Усмань",
    "phone": "+7-47341- 55930"
  }
},
{
  "type": "node",
  "id": 865753693,
  "lat": 53.7550477,
  "lon": 87.1556943,
  "tags": {
    "amenity": "police",
    "name": "Отдел по делам несовершеннолетних"
  }
},
{
  "type": "node",
  "id": 865753727,
  "lat": 53.7554764,
  "lon": 87.1551097,
  "tags": {
    "amenity": "police",
    "name": "1й отдел милиции по Центральному району"
  }
},
{
  "type": "node",
  "id": 873549454,
  "lat": 51.8037019,
  "lon": 107.6290800,
  "tags": {
    "amenity": "police"
  }
},
{
  "type": "node",
  "id": 873712602,
  "lat": 48.5517903,
  "lon": 135.0441784,
  "tags": {
    "amenity": "police",
    "name": "Опорный пункт милиции"
  }
},
{
  "type": "node",
  "id": 873906053,
  "lat": 61.3497207,
  "lon": 63.5909779,
  "tags": {
    "amenity": "police",
    "name": "ГИБДД Советского района"
  }
},
{
  "type": "node",
  "id": 876198187,
  "lat": 55.9725139,
  "lon": 37.7695604,
  "tags": {
    "access": "private",
    "amenity": "police",
    "barrier": "lift_gate",
    "bicycle": "no",
    "foot": "no"
  }
},
{
  "type": "node",
  "id": 876205934,
  "lat": 54.9762461,
  "lon": 60.7588914,
  "tags": {
    "amenity": "police",
    "name": "Участковый пункт милиции"
  }
},
{
  "type": "node",
  "id": 876501732,
  "lat": 52.5517342,
  "lon": 34.5142814,
  "tags": {
    "amenity": "police",
    "name": "Пост ГИБДД"
  }
},
{
  "type": "node",
  "id": 876662904,
  "lat": 69.0784978,
  "lon": 33.4124782,
  "tags": {
    "addr:city": "Североморск",
    "addr:country": "RU",
    "addr:housenumber": "24",
    "addr:place": "Межмуниципальный отдел МВД России по ЗАТО г. Североморск и г. Островной",
    "addr:postcode": "184604",
    "addr:street": "улица Сафонова",
    "amenity": "police",
    "fire_object:type": "SZO",
    "fire_operator": "RU-MUR-6",
    "fire_rank": "1bis",
    "name": "Межмуниципальный отдел МВД России"
  }
},
{
  "type": "node",
  "id": 877026046,
  "lat": 69.0786295,
  "lon": 33.4141595,
  "tags": {
    "amenity": "police",
    "name": "УВД"
  }
},
{
  "type": "node",
  "id": 877069288,
  "lat": 56.9959169,
  "lon": 39.2671464,
  "tags": {
    "amenity": "police",
    "description": "Прохождение ТО, выдача В/У",
    "name": "ГИБДД"
  }
},
{
  "type": "node",
  "id": 879006587,
  "lat": 45.6074928,
  "lon": 38.9322872,
  "tags": {
    "amenity": "police",
    "name": "Полиция"
  }
},
{
  "type": "node",
  "id": 879116953,
  "lat": 54.5010784,
  "lon": 37.0700125,
  "tags": {
    "amenity": "police"
  }
},
{
  "type": "node",
  "id": 879899187,
  "lat": 53.1855127,
  "lon": 44.9979388,
  "tags": {
    "amenity": "police",
    "entrance": "yes"
  }
},
{
  "type": "node",
  "id": 881802962,
  "lat": 55.8404681,
  "lon": 37.1463070,
  "tags": {
    "amenity": "police"
  }
},
{
  "type": "node",
  "id": 882471677,
  "lat": 55.4941288,
  "lon": 46.4150451,
  "tags": {
    "addr:housenumber": "45",
    "addr:street": "улица Щербакова",
    "amenity": "police",
    "name": "Шумерлинский ГРОВД"
  }
},
{
  "type": "node",
  "id": 884420391,
  "lat": 55.7021518,
  "lon": 37.5314364,
  "tags": {
    "addr:floor": "0 (цоколь)",
    "amenity": "police"
  }
},
{
  "type": "node",
  "id": 885655529,
  "lat": 52.4938756,
  "lon": 48.1070522,
  "tags": {
    "addr:housenumber": "31",
    "addr:street": "площадь Карла Маркса",
    "amenity": "police",
    "fixme": "уточнить положение",
    "name": "Хвалынский ГОВД"
  }
},
{
  "type": "node",
  "id": 888418289,
  "lat": 56.2791842,
  "lon": 30.9661133,
  "tags": {
    "amenity": "police",
    "name": "Пост ДПС",
    "police": "traffic_police"
  }
},
{
  "type": "node",
  "id": 889036944,
  "lat": 44.9453911,
  "lon": 37.3036366,
  "tags": {
    "amenity": "police",
    "name": "Рота ДПС"
  }
},
{
  "type": "node",
  "id": 890570669,
  "lat": 55.3614355,
  "lon": 86.0755279,
  "tags": {
    "amenity": "police",
    "name": "ГУВД по Кемеровской области"
  }
},
{
  "type": "node",
  "id": 891373006,
  "lat": 52.9796183,
  "lon": 36.1119101,
  "tags": {
    "amenity": "police"
  }
},
{
  "type": "node",
  "id": 892673589,
  "lat": 50.5390041,
  "lon": 137.0235431,
  "tags": {
    "amenity": "police",
    "name": "УМВД по г. Комсомольску-на-Амуре",
    "phone": "+7 4217 546161 (дежурная часть)"
  }
},
{
  "type": "node",
  "id": 892728593,
  "lat": 45.3556786,
  "lon": 36.4681706,
  "tags": {
    "amenity": "police",
    "name": "УВД",
    "name:uk": "УВС"
  }
},
{
  "type": "node",
  "id": 892746776,
  "lat": 57.6323692,
  "lon": 39.8881870,
  "tags": {
    "amenity": "police",
    "name": "Пункт охраны порядка"
  }
},
{
  "type": "node",
  "id": 893185505,
  "lat": 55.6076864,
  "lon": 37.7078987,
  "tags": {
    "amenity": "police",
    "name": "ОПОП №3 района \"Орехово-Борисово Южное\""
  }
},
{
  "type": "node",
  "id": 894168426,
  "lat": 54.7584343,
  "lon": 83.0893485,
  "tags": {
    "amenity": "police",
    "name": "УВД г.Бердска"
  }
},
{
  "type": "node",
  "id": 894539830,
  "lat": 62.7729895,
  "lon": 40.3274822,
  "tags": {
    "amenity": "police",
    "name": "ГИБДД"
  }
},
{
  "type": "node",
  "id": 894591148,
  "lat": 59.3771646,
  "lon": 28.2414732,
  "tags": {
    "amenity": "police",
    "name": "Пост ДПС",
    "police": "traffic_police"
  }
},
{
  "type": "node",
  "id": 894695286,
  "lat": 55.9220782,
  "lon": 36.8615602,
  "tags": {
    "amenity": "police",
    "name": "ИФМС"
  }
},
{
  "type": "node",
  "id": 895247043,
  "lat": 55.6705236,
  "lon": 37.8373893,
  "tags": {
    "amenity": "police",
    "name": "ДПС"
  }
},
{
  "type": "node",
  "id": 895348283,
  "lat": 59.9933157,
  "lon": 29.7811545,
  "tags": {
    "amenity": "police",
    "name": "Участковый пункт полиции № 3"
  }
},
{
  "type": "node",
  "id": 897151662,
  "lat": 62.7625655,
  "lon": 40.3412209,
  "tags": {
    "amenity": "police",
    "name": "ОВД г. Мирный"
  }
},
{
  "type": "node",
  "id": 897351383,
  "lat": 58.0207379,
  "lon": 56.2513371,
  "tags": {
    "amenity": "police"
  }
},
{
  "type": "node",
  "id": 897536827,
  "lat": 59.9908784,
  "lon": 29.7893527,
  "tags": {
    "amenity": "police",
    "check_date": "2023-10-28",
    "name": "Участковый пункт полиции"
  }
},
{
  "type": "node",
  "id": 898934505,
  "lat": 48.3280423,
  "lon": 40.2681860,
  "tags": {
    "amenity": "police",
    "name": "ГУВД"
  }
},
{
  "type": "node",
  "id": 898977484,
  "lat": 51.2845424,
  "lon": 37.8024883,
  "tags": {
    "amenity": "police",
    "name": "ФМС"
  }
},
{
  "type": "node",
  "id": 898977566,
  "lat": 51.2835253,
  "lon": 37.8028377,
  "tags": {
    "amenity": "police",
    "name": "Паспортный стол, ОВИР"
  }
},
{
  "type": "node",
  "id": 899350629,
  "lat": 61.0360349,
  "lon": 30.1131245,
  "tags": {
    "amenity": "police",
    "name": "ОВД Приозерского района"
  }
},
{
  "type": "node",
  "id": 900288735,
  "lat": 51.2846505,
  "lon": 37.7959294,
  "tags": {
    "amenity": "police",
    "name": "УУП №4"
  }
},
{
  "type": "node",
  "id": 901961692,
  "lat": 48.3932195,
  "lon": 135.0977923,
  "tags": {
    "amenity": "police"
  }
},
{
  "type": "node",
  "id": 902604064,
  "lat": 51.2974116,
  "lon": 37.8379397,
  "tags": {
    "amenity": "police",
    "name": "Прокуратура"
  }
},
{
  "type": "node",
  "id": 903166675,
  "lat": 52.7216344,
  "lon": 58.6575381,
  "tags": {
    "amenity": "police",
    "name": "ОМВД по г. Сибаю"
  }
},
{
  "type": "node",
  "id": 903656009,
  "lat": 55.4380419,
  "lon": 65.3086190,
  "tags": {
    "amenity": "police",
    "name": "OBO"
  }
},
{
  "type": "node",
  "id": 903843370,
  "lat": 53.8949696,
  "lon": 87.1263002,
  "tags": {
    "amenity": "police",
    "name": "Инспекция по делам несовершеннолетних"
  }
},
{
  "type": "node",
  "id": 903995488,
  "lat": 56.5699538,
  "lon": 84.9633622,
  "tags": {
    "amenity": "police",
    "name": "Пост ГИБДД",
    "name:en": "Road police office"
  }
},
{
  "type": "node",
  "id": 904037011,
  "lat": 46.4713803,
  "lon": 41.5462551,
  "tags": {
    "amenity": "police",
    "name": "Сальский ЛОВДТ"
  }
},
{
  "type": "node",
  "id": 904037017,
  "lat": 46.4721532,
  "lon": 41.5438182,
  "tags": {
    "amenity": "police",
    "name": "ОВД по Сальскому району"
  }
},
{
  "type": "node",
  "id": 904205795,
  "lat": 46.4824455,
  "lon": 41.5328379,
  "tags": {
    "amenity": "police",
    "name": "Следствие, паспортный стол"
  }
},
{
  "type": "node",
  "id": 904815208,
  "lat": 53.9009679,
  "lon": 87.1172341,
  "tags": {
    "amenity": "police",
    "name": "Уголовно-исполнительная инспекция по Ильинскому району"
  }
},
{
  "type": "node",
  "id": 905001061,
  "lat": 55.6397706,
  "lon": 37.5907133,
  "tags": {
    "amenity": "police",
    "name": "ОВД Зюзино"
  }
},
{
  "type": "node",
  "id": 906764377,
  "lat": 52.1713585,
  "lon": 55.2907142,
  "tags": {
    "amenity": "police"
  }
},
{
  "type": "node",
  "id": 906773655,
  "lat": 57.5842276,
  "lon": 39.8557472,
  "tags": {
    "amenity": "police",
    "name": "Пункт милиции Участковый"
  }
},
{
  "type": "node",
  "id": 906867695,
  "lat": 56.7992202,
  "lon": 60.5731109,
  "tags": {
    "addr:city": "Екатеринбург",
    "addr:housenumber": "41",
    "addr:postcode": "620146",
    "addr:street": "улица Академика Бардина",
    "amenity": "police",
    "name": "Отдел полиции № 4 УМВД России по г. Екатеринбургу",
    "phone": "+7 343 3564204",
    "ref": "8",
    "website": "http://66.мвд.рф"
  }
},
{
  "type": "node",
  "id": 907050312,
  "lat": 56.8831925,
  "lon": 60.5745433,
  "tags": {
    "amenity": "police",
    "name": "ГИБДД Орджоникидзевского района"
  }
},
{
  "type": "node",
  "id": 907200090,
  "lat": 51.6598223,
  "lon": 35.6604782,
  "tags": {
    "amenity": "police",
    "name": "Опорный пункт полиции",
    "wheelchair": "no"
  }
},
{
  "type": "node",
  "id": 907200103,
  "lat": 51.6537422,
  "lon": 35.6891564,
  "tags": {
    "addr:housenumber": "19А",
    "addr:street": "Садовая улица",
    "amenity": "police",
    "name": "Участковый"
  }
},
{
  "type": "node",
  "id": 907672796,
  "lat": 53.0963875,
  "lon": 44.7781799,
  "tags": {
    "amenity": "police",
    "name": "ДПС"
  }
},
{
  "type": "node",
  "id": 907790922,
  "lat": 56.8295632,
  "lon": 60.6931622,
  "tags": {
    "addr:city": "Екатеринбург",
    "addr:housenumber": "18Б",
    "addr:street": "улица 40-летия Комсомола",
    "amenity": "police",
    "name": "Отдел полиции №2 Кировского РУВД"
  }
},
{
  "type": "node",
  "id": 907790929,
  "lat": 56.8406440,
  "lon": 60.5718185,
  "tags": {
    "amenity": "police",
    "name": "УВД по Верх-Исетскому району"
  }
},
{
  "type": "node",
  "id": 907790943,
  "lat": 56.8263597,
  "lon": 60.5922482,
  "tags": {
    "amenity": "police",
    "name": "УВД по Ленинскому району"
  }
},
{
  "type": "node",
  "id": 907790978,
  "lat": 56.8831768,
  "lon": 60.5776118,
  "tags": {
    "amenity": "police",
    "name": "УВД по Орджоникидзевскому району"
  }
},
{
  "type": "node",
  "id": 907790988,
  "lat": 56.8231923,
  "lon": 60.5720827,
  "tags": {
    "amenity": "police",
    "fixme": "№8",
    "name": "Отдел полиции № 8",
    "ref": "5"
  }
},
{
  "type": "node",
  "id": 907791004,
  "lat": 56.8548359,
  "lon": 60.6012911,
  "tags": {
    "amenity": "police",
    "name": "УВД по Железнодорожному району"
  }
},