{
  "version": 0.6,
  "generator": "Overpass API 0.7.59 e21c39fe",
  "osm3s": {
    "timestamp_osm_base": "2023-11-15T16:54:45Z",
    "timestamp_areas_base": "2023-11-14T20:47:56Z",
    "copyright": "The data included in this document is from www.openstreetmap.org. The data is made available under ODbL."
  },
  "elements": [

{
  "type": "node",
  "id": 285075,
  "lat": 60.7497548,
  "lon": 33.7136484,
  "tags": {
    "esr:user": "049207",
    "name": "Янега",
    "operator:branch": "Октябрьская железная дорога",
    "public_transport": "station",
    "railway": "station",
    "train": "yes",
    "uic_ref": "2004226"
  }
},
{
  "type": "node",
  "id": 285173,
  "lat": 60.6228664,
  "lon": 33.3151451,
  "tags": {
    "esr:user": "049021",
    "name": "Заостровье",
    "name:ru": "Заостровье",
    "operator:branch": "Октябрьская железная дорога",
    "public_transport": "station",
    "railway": "station",
    "train": "yes",
    "uic_ref": "2004223"
  }
},
{
  "type": "node",
  "id": 308112,
  "lat": 59.9904636,
  "lon": 30.3547672,
  "tags": {
    "esr:user": "037405",
    "name": "Кушелевка",
    "name:fi": "Kušelevka pysäkki",
    "public_transport": "station",
    "railway": "station",
    "train": "yes",
    "uic_ref": "2005130",
    "wheelchair": "yes",
    "wikidata": "Q4250172",
    "wikipedia": "ru:Кушелевка (станция)"
  }
},
{
  "type": "node",
  "id": 308149,
  "lat": 59.9882032,
  "lon": 30.4250102,
  "tags": {
    "esr:user": "037024",
    "name": "Пискарёвка",
    "public_transport": "station",
    "railway": "station",
    "train": "yes",
    "uic_ref": "2005055",
    "wikidata": "Q4363630",
    "wikipedia": "ru:Пискарёвка (станция)"
  }
},
{
  "type": "node",
  "id": 370656,
  "lat": 61.9411138,
  "lon": 34.2503457,
  "tags": {
    "esr:user": "010407",
    "name": "Шуйская",
    "public_transport": "station",
    "railway": "station",
    "uic_ref": "2004330"
  }
},
{
  "type": "node",
  "id": 386609,
  "lat": 63.1499652,
  "lon": 34.3026753,
  "tags": {
    "esr:user": "011541",
    "name": "Масельская",
    "name:ru": "Масельская",
    "public_transport": "station",
    "railway": "station",
    "uic_name": "Maselskaja",
    "uic_ref": "2004693",
    "wikidata": "Q21641511",
    "wikipedia": "ru:Масельская"
  }
},
{
  "type": "node",
  "id": 7535181,
  "lat": 59.9581823,
  "lon": 30.3581566,
  "tags": {
    "addr:city": "Санкт-Петербург",
    "addr:housenumber": "6",
    "addr:postcode": "195009",
    "addr:street": "площадь Ленина",
    "alt_name": "Финляндский вокзал",
    "esr:user": "038205",
    "loc_name": "Финбан",
    "name": "Санкт-Петербург-Финляндский",
    "name:en": "St Petersburg–Finlyandsky",
    "name:fi": "Suomen asema",
    "name:ru": "Санкт-Петербург - Финляндский",
    "operator": "РЖД",
    "public_transport": "station",
    "railway": "station",
    "start_date": "1870",
    "train": "yes",
    "uic_name": "St Petersburg Finlyandskii",
    "uic_ref": "2004004",
    "website": "http://finlyandsky.dzvr.ru/",
    "wikidata": "Q548259",
    "wikipedia": "ru:Финляндский вокзал"
  }
},
{
  "type": "node",
  "id": 18481345,
  "lat": 58.5841764,
  "lon": 29.6126442,
  "tags": {
    "esr:user": "071805",
    "name": "Серебрянка",
    "operator:branch": "Октябрьская железная дорога",
    "public_transport": "station",
    "railway": "station",
    "train": "yes",
    "uic_ref": "2004546"
  }
},
{
  "type": "node",
  "id": 18485486,
  "lat": 58.6120920,
  "lon": 30.8335343,
  "tags": {
    "esr:user": "040173",
    "name": "Люболяды",
    "public_transport": "station",
    "railway": "station",
    "train": "yes",
    "uic_ref": "2004614"
  }
},
{
  "type": "node",
  "id": 18486076,
  "lat": 58.6479982,
  "lon": 30.3150392,
  "tags": {
    "esr:user": "058302",
    "name": "Батецкая",
    "name:de": "Batezkaja",
    "operator": "ОАО «РЖД»",
    "operator:branch": "Октябрьская железная дорога",
    "public_transport": "station",
    "railway": "station",
    "train": "yes",
    "uic_name": "Batezkaja",
    "uic_ref": "2004612"
  }
},
{
  "type": "node",
  "id": 21596808,
  "lat": 59.9269320,
  "lon": 30.3631131,
  "tags": {
    "esr:user": "031812",
    "name": "Санкт-Петербург-Главный",
    "name:en": "St. Petersburg Glavny",
    "note": "в билетах на поезда указывается станция отправления/прибытия - Санкт-Петербург - Главный; Московский вокзал - название вокзала, а не станции",
    "official_name": "Санкт-Петербург-Главный",
    "operator": "Российские железные дороги",
    "public_transport": "station",
    "railway": "station",
    "short_name": "С.-Петерб.-Гл.",
    "start_date": "1847",
    "train": "yes",
    "uic_name": "St Petersburg P Mosk",
    "uic_ref": "2004000",
    "wikidata": "Q139318",
    "wikipedia": "ru:Московский вокзал (Санкт-Петербург)"
  }
},
{
  "type": "node",
  "id": 21683296,
  "lat": 59.9188181,
  "lon": 30.3307149,
  "tags": {
    "esr:user": "033061",
    "name": "Санкт-Петербург-Витебский",
    "name:ru": "Санкт-Петербург-Витебский",
    "operator:branch": "Октябрьская железная дорога",
    "public_transport": "station",
    "railway": "station",
    "train": "yes",
    "uic_name": "St Petersburg Vitebskii",
    "uic_ref": "2004003",
    "wheelchair": "yes",
    "wikidata": "Q1238406",
    "wikipedia": "ru:Витебский вокзал"
  }
},
{
  "type": "node",
  "id": 21683581,
  "lat": 58.5521323,
  "lon": 31.2331074,
  "tags": {
    "esr:user": "040120",
    "name": "Новгород-Лужский",
    "public_transport": "station",
    "railway": "station",
    "train": "yes",
    "uic_ref": "2006401"
  }
},
{
  "type": "node",
  "id": 21751966,
  "lat": 60.0392020,
  "lon": 30.2964601,
  "tags": {
    "name": "Озёрная",
    "opening_hours": "Th-Su 11:00-16:00",
    "operator": "Малая Октябрьская железная дорога",
    "phone": "+7 812 4575149",
    "platforms": "2",
    "public_transport": "station",
    "railway": "station",
    "tourism": "attraction",
    "train": "yes",
    "website": "http://dorogaru.info/mzd/"
  }
},
{
  "type": "node",
  "id": 22325156,
  "lat": 59.9090382,
  "lon": 30.3874886,
  "tags": {
    "esr:user": "033413",
    "freight": "yes",
    "name": "Глухоозёрская",
    "railway": "station",
    "uic_ref": "9990156"
  }
},
{
  "type": "node",
  "id": 25532584,
  "lat": 60.1043173,
  "lon": 30.2186217,
  "tags": {
    "esr:user": "038807",
    "name": "Левашово",
    "old_name:fi": "Levassova asema",
    "public_transport": "station",
    "railway": "station",
    "train": "yes",
    "uic_ref": "2005235",
    "wikidata": "Q4256284",
    "wikipedia": "ru:Левашово (станция)"
  }
},
{
  "type": "node",
  "id": 25717718,
  "lat": 60.0505255,
  "lon": 30.4428073,
  "tags": {
    "esr:user": "038027",
    "name": "Девяткино",
    "operator:branch": "Октябрьская железная дорога",
    "public_transport": "station",
    "railway": "station",
    "train": "yes",
    "uic_name": "Devyatkino",
    "uic_ref": "2006025",
    "wikidata": "Q4156521",
    "wikipedia": "ru:Девяткино (железнодорожная станция)"
  }
},
{
  "type": "node",
  "id": 26870156,
  "lat": 63.6584616,
  "lon": 34.2811966,
  "tags": {
    "esr:user": "011734",
    "name": "Шпаловой",
    "public_transport": "station",
    "railway": "station",
    "uic_ref": "2004354"
  }
},
{
  "type": "node",
  "id": 26918733,
  "lat": 62.2993530,
  "lon": 34.5167914,
  "tags": {
    "esr:user": "010731",
    "name": "Илемсельга",
    "name:ru": "Илемсельга",
    "public_transport": "station",
    "railway": "station",
    "train": "yes",
    "uic_ref": "2004337"
  }
},
{
  "type": "node",
  "id": 26918764,
  "lat": 62.2624012,
  "lon": 34.4468295,
  "tags": {
    "esr:user": "010727",
    "name": "Мянсельга",
    "name:ru": "Мянсельга",
    "public_transport": "station",
    "railway": "station",
    "uic_ref": "2004336"
  }
},
{
  "type": "node",
  "id": 26919789,
  "lat": 62.1082938,
  "lon": 34.2452582,
  "tags": {
    "esr:user": "010500",
    "name": "Суна",
    "name:ru": "Суна",
    "public_transport": "station",
    "railway": "station",
    "uic_ref": "2004332"
  }
},
{
  "type": "node",
  "id": 26994843,
  "lat": 60.8376107,
  "lon": 33.9884810,
  "tags": {
    "esr:user": "049229",
    "name": "Яндеба",
    "operator:branch": "Октябрьская железная дорога",
    "public_transport": "station",
    "railway": "station",
    "train": "yes",
    "uic_ref": "2004228"
  }
},
{
  "type": "node",
  "id": 26994869,
  "lat": 60.9020017,
  "lon": 34.0685875,
  "tags": {
    "esr:user": "049303",
    "name": "Подпорожье",
    "name:ru": "Подпорожье",
    "operator:branch": "Октябрьская железная дорога",
    "public_transport": "station",
    "railway": "station",
    "train": "yes",
    "uic_name": "Podporoshe",
    "uic_ref": "2004229",
    "wikidata": "Q4368211",
    "wikipedia": "ru:Подпорожье (станция)"
  }
},
{
  "type": "node",
  "id": 26999673,
  "lat": 55.7788343,
  "lon": 37.6537207,
  "tags": {
    "alt_name": "Москва-Октябрьская",
    "esr:user": "060073",
    "loc_name": "Москва-Ленинградская",
    "loc_name:website": "http://www.tutu.ru/station.php?nnst=79310",
    "name": "Москва-Пассажирская",
    "nat_name": "Москва",
    "official_name": "Москва-Пассажирская",
    "official_name:esr": "Москва-Пассажирская",
    "official_name:esr:website": "http://cargo.rzd.ru/cargostation/public/ru?STRUCTURE_ID=5101&layer_id=4829&page4821_2705=1&refererLayerId=4821&id=1090",
    "official_name:express-3": "Москва-Октябрьская",
    "official_name:express-3:website": "http://bilet.ru/rus/TrainDirectory.htm?firstsymb=%u041c",
    "official_name:website": "http://pass.rzd.ru/timetable/public/ru?STRUCTURE_ID=5104&layer_id=5368&id=278&node_id=19",
    "operator:branch": "Октябрьская железная дорога",
    "public_transport": "station",
    "railway": "station",
    "train": "yes",
    "uic_name": "Moskva Oktiabrskaia",
    "uic_ref": "2006004"
  }
},
{
  "type": "node",
  "id": 26999985,
  "lat": 55.9496529,
  "lon": 37.2990008,
  "tags": {
    "esr:user": "060406",
    "express:user": "2005090",
    "name": "Сходня",
    "name:en": "Skhodnya",
    "operator:branch": "Октябрьская железная дорога",
    "public_transport": "station",
    "railway": "station",
    "train": "yes",
    "wikidata": "Q4447719",
    "wikipedia": "ru:Сходня (станция)"
  }
},
{
  "type": "node",
  "id": 27024681,
  "lat": 59.7230377,
  "lon": 30.4296790,
  "tags": {
    "esr:user": "032707",
    "name": "Царское Село",
    "old_name": "Детское Село",
    "public_transport": "station",
    "railway": "station",
    "source": "Постановление Правительства РФ: http://pravo.gov.ru:8080/page.aspx?57018",
    "train": "yes",
    "uic_ref": "2004182",
    "wikidata": "Q4159498",
    "wikipedia": "ru:Царское Село (станция)"
  }
},
{
  "type": "node",
  "id": 27026122,
  "lat": 58.4232570,
  "lon": 29.3630437,
  "tags": {
    "esr:user": "071608",
    "name": "Плюсса",
    "operator:branch": "Октябрьская железная дорога",
    "public_transport": "station",
    "railway": "station",
    "train": "yes",
    "uic_name": "Pljussa",
    "uic_ref": "2004544"
  }
},
{
  "type": "node",
  "id": 27033425,
  "lat": 57.3544374,
  "lon": 28.3168595,
  "tags": {
    "disused:public_transport": "station",
    "esr:user": "070200",
    "name": "Остров",
    "name:en": "Ostrov",
    "name:ru": "Остров",
    "operator:branch": "Октябрьская железная дорога",
    "railway": "station",
    "start_date": "1860",
    "train": "yes",
    "uic_name": "Ostrow",
    "uic_ref": "2004536"
  }
},
{
  "type": "node",
  "id": 27078394,
  "lat": 56.1354898,
  "lon": 30.0054069,
  "tags": {
    "esr:user": "067208",
    "name": "разъезд 451 км",
    "operator:branch": "Октябрьская железная дорога",
    "public_transport": "station",
    "railway": "station",
    "train": "yes",
    "uic_ref": "2005337"
  }
},
{
  "type": "node",
  "id": 27078441,
  "lat": 56.1663879,
  "lon": 30.0675925,
  "tags": {
    "esr:user": "067212",
    "name": "Изоча",
    "operator:branch": "Октябрьская железная дорога",
    "public_transport": "station",
    "railway": "station",
    "train": "yes",
    "uic_ref": "2004506"
  }
},
{
  "type": "node",
  "id": 27078986,
  "lat": 56.5070955,
  "lon": 30.1999474,
  "tags": {
    "esr:user": "066629",
    "name": "Киселевичи",
    "operator:branch": "Октябрьская железная дорога",
    "public_transport": "station",
    "railway": "station",
    "train": "yes",
    "uic_ref": "2004517"
  }
},
{
  "type": "node",
  "id": 27441677,
  "lat": 61.7390813,
  "lon": 34.4458299,
  "tags": {
    "esr:user": "049905",
    "name": "Онежский",
    "name:ru": "Онежский",
    "public_transport": "station",
    "railway": "station",
    "uic_ref": "2004328",
    "wikidata": "Q4334858"
  }
},
{
  "type": "node",
  "id": 27448166,
  "lat": 60.3962282,
  "lon": 33.0468546,
  "tags": {
    "esr:user": "048902",
    "name": "Паша",
    "operator:branch": "Октябрьская железная дорога",
    "public_transport": "station",
    "railway": "station",
    "train": "yes",
    "uic_ref": "2004676"
  }
},
{
  "type": "node",
  "id": 27448179,
  "lat": 60.4554848,
  "lon": 33.1415592,
  "tags": {
    "esr:user": "049002",
    "name": "Оять-Волховстроевский",
    "operator:branch": "Октябрьская железная дорога",
    "public_transport": "station",
    "railway": "station",
    "train": "yes",
    "uic_ref": "2004677",
    "wikidata": "Q4340872",
    "wikipedia": "ru:Оять-Волховстроевский"
  }
},
{
  "type": "node",
  "id": 27453339,
  "lat": 60.9514526,
  "lon": 34.0836929,
  "tags": {
    "esr:user": "049407",
    "name": "Свирь",
    "name:ru": "Свирь",
    "operator:branch": "Октябрьская железная дорога",
    "public_transport": "station",
    "railway": "station",
    "train": "yes",
    "uic_name": "Swir",
    "uic_ref": "2004679",
    "wikidata": "Q4410883",
    "wikipedia": "ru:Свирь (станция)"
  }
},
{
  "type": "node",
  "id": 27453425,
  "lat": 61.1011619,
  "lon": 34.3942238,
  "tags": {
    "esr:user": "049500",
    "name": "Токари",
    "name:ru": "Токари",
    "operator:branch": "Октябрьская железная дорога",
    "public_transport": "station",
    "railway": "station",
    "train": "yes",
    "uic_name": "Tokari(RUS)",
    "uic_ref": "2004681",
    "wikidata": "Q4459520",
    "wikipedia": "ru:Токари (станция)"
  }
},
{
  "type": "node",
  "id": 27478928,
  "lat": 60.4644369,
  "lon": 30.2611406,
  "tags": {
    "esr:user": "037804",
    "name": "Орехово",
    "operator:branch": "Октябрьская железная дорога",
    "public_transport": "station",
    "railway": "station",
    "train": "yes",
    "uic_ref": "2004247",
    "wikidata": "Q4336328",
    "wikipedia": "ru:Орехово (станция)"
  }
},
{
  "type": "node",
  "id": 31447943,
  "lat": 55.7268977,
  "lon": 37.4495857,
  "tags": {
    "alt_name": "Кунцево",
    "esr:user": "181704",
    "express:user": "2001140",
    "name": "Кунцевская",
    "name:en": "Kuntsevskaya",
    "name:ru": "Кунцевская",
    "old_name": "Кунцево I",
    "operator": "ОАО «РЖД»",
    "operator:branch": "Московская железная дорога",
    "public_transport": "station",
    "railway": "station",
    "train": "yes",
    "uic_ref": "2001140",
    "wheelchair": "limited",
    "wikidata": "Q4247313"
  }
},
{
  "type": "node",
  "id": 54626031,
  "lat": 55.8030155,
  "lon": 37.7466848,
  "tags": {
    "esr:user": "199208",
    "name": "Черкизово",
    "name:de": "Tscherkisowo",
    "operator": "ОАО «РЖД»",
    "operator:branch": "Московская железная дорога",
    "public_transport": "station",
    "railway": "station",
    "train": "yes",
    "wikidata": "Q26849010",
    "wikipedia": "ru:Черкизово (станция)"
  }
},
{
  "type": "node",
  "id": 61088523,
  "lat": 55.7576786,
  "lon": 37.6627872,
  "tags": {
    "express:user": "2000001",
    "loc_name": "Курский вокзал",
    "name": "Москва-Пассажирская-Курская",
    "name:en": "Moscow Kursky railway station",
    "name:ru": "Москва-Пассажирская-Курская",
    "nat_name": "Москва",
    "official_name": "Москва-Пассажирская-Курская",
    "operator": "ОАО «РЖД»",
    "operator:branch": "Московская железная дорога",
    "public_transport": "station",
    "railway": "station",
    "train": "yes",
    "uic_name": "Moskva Kurskaja",
    "uic_ref": "2000001",
    "wheelchair": "no",
    "wikidata": "Q577854",
    "wikipedia": "en:Moscow Kursky railway station"
  }
},
{
  "type": "node",
  "id": 65005973,
  "lat": 60.5285749,
  "lon": 28.6898125,
  "tags": {
    "esr:user": "020502",
    "name": "Советский",
    "operator:branch": "Октябрьская железная дорога",
    "public_transport": "station",
    "railway": "station",
    "train": "yes",
    "uic_ref": "2005322",
    "wikidata": "Q4426430",
    "wikipedia": "ru:Советский (станция)"
  }
},
{
  "type": "node",
  "id": 65007377,
  "lat": 60.5830562,
  "lon": 28.6843843,
  "tags": {
    "esr:user": "020610",
    "name": "Пихтовая",
    "railway": "station",
    "uic_ref": "2005058",
    "wikidata": "Q4363973",
    "wikipedia": "ru:Пихтовая (станция)"
  }
},
{
  "type": "node",
  "id": 66312593,
  "lat": 60.4527885,
  "lon": 28.7151711,
  "tags": {
    "esr:user": "020409",
    "name": "Прибылово",
    "name:fi": "Makslahti",
    "operator:branch": "Октябрьская железная дорога",
    "public_transport": "station",
    "railway": "station",
    "train": "yes",
    "uic_ref": "2005264",
    "wikidata": "Q4377736",
    "wikipedia": "ru:Прибылово (станция)"
  }
},
{
  "type": "node",
  "id": 75362899,
  "lat": 68.9719752,
  "lon": 33.0692370,
  "tags": {
    "contact:phone": "+7 8152 423279",
    "esr:user": "018409",
    "is_in:country": "Russia",
    "name": "Мурманск",
    "public_transport": "stop_position",
    "railway": "station",
    "train": "yes",
    "uic_name": "Murmansk",
    "uic_ref": "2004200",
    "wikidata": "Q4308088"
  }
},
{
  "type": "node",
  "id": 75363109,
  "lat": 68.8890792,
  "lon": 33.0514661,
  "tags": {
    "name": "Кола",
    "public_transport": "stop_position",
    "railway": "station",
    "train": "yes"
  }
},
{
  "type": "node",
  "id": 75363675,
  "lat": 68.8368617,
  "lon": 33.0817927,
  "tags": {
    "esr:user": "016920",
    "name": "Выходной",
    "operator": "ОАО «РЖД»",
    "operator:branch": "Октябрьская железная дорога",
    "public_transport": "station",
    "railway": "station",
    "train": "yes",
    "uic_name": "Wichodnoj",
    "uic_ref": "2004402",
    "wikidata": "Q4129901",
    "wikipedia": "ru:Выходной (станция)"
  }
},
{
  "type": "node",
  "id": 75364418,
  "lat": 69.0195341,
  "lon": 33.0974158,
  "tags": {
    "esr:user": "018606",
    "name": "Комсомольск-Мурманский",
    "railway": "station",
    "uic_ref": "2005084"
  }
},
{
  "type": "node",
  "id": 85698866,
  "lat": 55.7742667,
  "lon": 37.6598644,
  "tags": {
    "express:user": "2000003",
    "loc_name": "Казанский вокзал",
    "loc_name:en": "Kazansky Vokzal",
    "name": "Москва-Пассажирская-Казанская",
    "name:en": "Kazan Passenger Moscow",
    "nat_name": "Москва",
    "official_name": "Москва-Пассажирская-Казанская",
    "operator": "ОАО «РЖД»",
    "operator:branch": "Московская железная дорога",
    "platforms": "9",
    "public_transport": "station",
    "railway": "station",
    "train": "yes",
    "uic_name": "Moskva Kasanskaja",
    "uic_ref": "2000010",
    "wheelchair": "no",
    "wikidata": "Q1432585",
    "wikipedia": "ru:Казанский вокзал"
  }
},
{
  "type": "node",
  "id": 143411800,
  "lat": 56.0135144,
  "lon": 37.4848762,
  "tags": {
    "addr:country": "RU",
    "esr:user": "237908",
    "express:user": "2000115",
    "name": "Лобня",
    "name:en": "Lobnya",
    "operator": "ОАО «РЖД»",
    "operator:branch": "Московская железная дорога",
    "public_transport": "station",
    "railway": "station",
    "train": "yes",
    "uic_ref": "2000115",
    "wikidata": "Q4264776"
  }
},
{
  "type": "node",
  "id": 146573247,
  "lat": 55.7932703,
  "lon": 37.6321318,
  "tags": {
    "esr:user": "196127",
    "loc_name": "Рижский вокзал; Рижка",
    "name": "Москва-Рижская",
    "name:en": "Moscow Rizhsky railway station",
    "nat_name": "Москва",
    "public_transport": "station",
    "railway": "station",
    "uic_name": "Moskva Rijskaja",
    "uic_ref": "2000008",
    "wikidata": "Q1473982",
    "wikipedia": "en:Moscow Rizhsky railway station"
  }
},
{
  "type": "node",
  "id": 147130344,
  "lat": 57.8238913,
  "lon": 29.9613573,
  "tags": {
    "esr:user": "056701",
    "name": "Дно",
    "name:de": "Dno",
    "name:en": "Dno",
    "name:ru": "Дно",
    "operator:branch": "Октябрьская железная дорога",
    "public_transport": "station",
    "railway": "station",
    "train": "yes",
    "uic_name": "Dno",
    "uic_ref": "2004570"
  }
},
{
  "type": "node",
  "id": 148094220,
  "lat": 60.3652892,
  "lon": 28.6299344,
  "tags": {
    "esr:user": "020305",
    "name": "Приморск",
    "old_name": "Койвисто",
    "old_name:fi": "Koivisto asema",
    "old_name:sv": "Björkö",
    "operator:branch": "Октябрьская железная дорога",
    "public_transport": "station",
    "railway": "station",
    "train": "yes",
    "uic_ref": "2005176",
    "wikidata": "Q19910809",
    "wikipedia": "ru:Приморск (станция)"
  }
},
{
  "type": "node",
  "id": 178681117,
  "lat": 56.4091611,
  "lon": 85.0484928,
  "tags": {
    "esr:user": "873827",
    "name": "Предтеченск",
    "name:en": "Predtechensk",
    "name:ru": "Предтеченск",
    "public_transport": "stop_position",
    "railway": "station",
    "train": "yes",
    "uic_ref": "2028590"
  }
},
{
  "type": "node",
  "id": 178969445,
  "lat": 56.5796752,
  "lon": 85.1275528,
  "tags": {
    "esr:user": "874603",
    "name": "Копылово",
    "name:en": "Kopylovo",
    "name:ru": "Копылово",
    "public_transport": "stop_position",
    "railway": "station",
    "train": "yes",
    "uic_name": "Kopilovo",
    "uic_ref": "2028546"
  }
},
{
  "type": "node",
  "id": 178972795,
  "lat": 57.1141515,
  "lon": 86.1825175,
  "tags": {
    "esr:user": "875201",
    "name": "Куендат",
    "name:en": "Kuendat",
    "name:ru": "Куендат",
    "public_transport": "stop_position",
    "railway": "station",
    "train": "yes",
    "uic_name": "Kuendat",
    "uic_ref": "2028023"
  }
},
{
  "type": "node",
  "id": 182471207,
  "lat": 56.6240793,
  "lon": 84.8213662,
  "tags": {
    "name": "Угольная",
    "name:en": "Ugolnaya",
    "name:ru": "Угольная",
    "railway": "station"
  }
},
{
  "type": "node",
  "id": 193781808,
  "lat": 56.8849668,
  "lon": 60.5994413,
  "tags": {
    "description": "Только грузовые операции.",
    "name": "Север",
    "public_transport": "no",
    "railway": "station",
    "train": "yes"
  }
},
{
  "type": "node",
  "id": 193789452,
  "lat": 56.8789423,
  "lon": 60.5517273,
  "tags": {
    "name": "Гипсовая",
    "railway": "station"
  }
},
{
  "type": "node",
  "id": 203964517,
  "lat": 56.5411711,
  "lon": 85.0542060,
  "tags": {
    "esr:user": "874020",
    "name": "Томск-Северный",
    "name:en": "Tomsk-Severny",
    "name:ru": "Томск-Северный",
    "public_transport": "stop_position",
    "railway": "station",
    "train": "yes",
    "uic_name": "Tomsk severnij",
    "uic_ref": "2029025"
  }
},
{
  "type": "node",
  "id": 203967685,
  "lat": 56.9964987,
  "lon": 86.1576023,
  "tags": {
    "esr:user": "875108",
    "name": "Асино",
    "name:en": "Asino",
    "name:ja": "アシノ",
    "name:ru": "Асино",
    "public_transport": "stop_position",
    "railway": "station",
    "train": "yes",
    "uic_name": "Asino",
    "uic_ref": "2028020"
  }
},
{
  "type": "node",
  "id": 205265428,
  "lat": 57.2772723,
  "lon": 86.1156661,
  "tags": {
    "esr:user": "875305",
    "name": "Сахалинка",
    "name:en": "Sakhalin",
    "name:ru": "Сахалинка",
    "public_transport": "stop_position",
    "railway": "station",
    "train": "yes",
    "uic_name": "Sakhalinka",
    "uic_ref": "2028036"
  }
},
{
  "type": "node",
  "id": 205347272,
  "lat": 57.4188939,
  "lon": 86.0468368,
  "tags": {
    "esr:user": "875409",
    "name": "Балагачево",
    "name:en": "Balagachevo",
    "name:ru": "Балагачево",
    "public_transport": "stop_position",
    "railway": "station",
    "train": "yes",
    "uic_name": "Balagachevo",
    "uic_ref": "2029002"
  }
},
{
  "type": "node",
  "id": 205376740,
  "lat": 58.4094663,
  "lon": 85.0421767,
  "tags": {
    "esr:user": "875803",
    "name": "Белый Яр",
    "name:en": "White Yar",
    "name:ja": "ベールイ・ヤール",
    "name:ru": "Белый Яр",
    "public_transport": "stop_position",
    "railway": "station",
    "train": "yes",
    "uic_name": "Belij Yar",
    "uic_ref": "2029001"
  }
},
{
  "type": "node",
  "id": 205435744,
  "lat": 56.1712647,
  "lon": 87.2316616,
  "tags": {
    "name": "Берикульская",
    "name:en": "Berikulskaya",
    "railway": "station"
  }
},
{
  "type": "node",
  "id": 205436905,
  "lat": 56.1725210,
  "lon": 87.5279091,
  "tags": {
    "esr:user": "876505",
    "name": "Антибесский",
    "name:en": "Antibes",
    "railway": "station"
  }
},
{
  "type": "node",
  "id": 206023596,
  "lat": 53.2835245,
  "lon": 48.0912272,
  "tags": {
    "name": "Балашейка",
    "name:ja": "バラシェイカ",
    "railway": "station",
    "uic_ref": "2024533"
  }
},
{
  "type": "node",
  "id": 206023746,
  "lat": 53.3857824,
  "lon": 48.0176207,
  "tags": {
    "name": "Рачейка",
    "railway": "station",
    "uic_ref": "2024532"
  }
},
{
  "type": "node",
  "id": 206023882,
  "lat": 54.5929667,
  "lon": 48.1439430,
  "tags": {
    "name": "Цильна",
    "name:ja": "ツィリナ",
    "name:ru": "Цильна",
    "network": "РЖД",
    "operator": "Куйбышевская железная дорога",
    "public_transport": "station",
    "railway": "station",
    "train": "yes",
    "uic_ref": "2024616"
  }
},
{
  "type": "node",
  "id": 206024298,
  "lat": 54.1179928,
  "lon": 48.2802144,
  "tags": {
    "name": "Ключищи",
    "public_transport": "stop_position",
    "railway": "station",
    "train": "yes",
    "uic_ref": "2024623"
  }
},
{
  "type": "node",
  "id": 206024673,
  "lat": 54.7734065,
  "lon": 48.2297947,
  "tags": {
    "esr:user": "249502",
    "name": "Бурундуки",
    "railway": "station",
    "uic_ref": "2060613"
  }
},
{
  "type": "node",
  "id": 206024835,
  "lat": 55.0527302,
  "lon": 48.2447569,
  "tags": {
    "esr:user": "249339",
    "name": "Лощи",
    "railway": "station",
    "uic_ref": "2060612"
  }
},
{
  "type": "node",
  "id": 206024950,
  "lat": 52.9135968,
  "lon": 48.3105665,
  "tags": {
    "name": "Рябина",
    "public_transport": "stop_position",
    "railway": "station",
    "train": "yes",
    "uic_ref": "2024795"
  }
},
{
  "type": "node",
  "id": 206026559,
  "lat": 53.6874277,
  "lon": 48.5165181,
  "tags": {
    "name": "Гремячий Ключ",
    "public_transport": "stop_position",
    "railway": "station",
    "train": "yes",
    "uic_ref": "2024629"
  }
},
{
  "type": "node",
  "id": 206026764,
  "lat": 55.7235105,
  "lon": 48.4815878,
  "tags": {
    "esr:user": "249038",
    "name": "Ходяшево",
    "railway": "station",
    "uic_ref": "2060058"
  }
},
{
  "type": "node",
  "id": 206026852,
  "lat": 53.1613797,
  "lon": 48.6682695,
  "tags": {
    "name": "Октябрьск",
    "network": "Куйбышевская железная дорога",
    "operator": "РЖД",
    "public_transport": "station",
    "railway": "station",
    "train": "yes",
    "uic_ref": "2024603"
  }
},
{
  "type": "node",
  "id": 206027169,
  "lat": 53.2594457,
  "lon": 48.6403401,
  "tags": {
    "name": "Губино",
    "railway": "station",
    "uic_ref": "2024890"
  }
},
{
  "type": "node",
  "id": 206027555,
  "lat": 53.1836251,
  "lon": 48.7852259,
  "tags": {
    "name": "Правая Волга",
    "name:en": "Pravaya Volga",
    "railway": "station",
    "uic_ref": "2024969"
  }
},
{
  "type": "node",
  "id": 206028472,
  "lat": 53.2657370,
  "lon": 49.1407282,
  "tags": {
    "name": "Переволоки",
    "railway": "station",
    "uic_ref": "2024918"
  }
},
{
  "type": "node",
  "id": 206028780,
  "lat": 53.2668952,
  "lon": 49.2632798,
  "tags": {
    "name": "Услада",
    "railway": "station",
    "uic_ref": "2025954"
  }
},
{
  "type": "node",
  "id": 206029101,
  "lat": 52.8404139,
  "lon": 49.4322383,
  "tags": {
    "name": "Разинский",
    "railway": "station",
    "uic_ref": "2024926"
  }
},
{
  "type": "node",
  "id": 206029337,
  "lat": 53.3241524,
  "lon": 49.4127843,
  "tags": {
    "name": "Снежные Валы",
    "railway": "station",
    "uic_ref": "2024950"
  }
},
{
  "type": "node",
  "id": 206031229,
  "lat": 53.4750070,
  "lon": 49.9678429,
  "tags": {
    "name": "Мастрюково",
    "name:en": "Mastryukovo",
    "public_transport": "stop_position",
    "railway": "station",
    "train": "yes",
    "uic_ref": "2024914"
  }
},
{
  "type": "node",
  "id": 206033535,
  "lat": 53.2519094,
  "lon": 50.8370222,
  "tags": {
    "name": "Тургеневка",
    "name:en": "Turgenevka",
    "railway": "station",
    "uic_ref": "2024638",
    "wheelchair": "no"
  }
},
{
  "type": "node",
  "id": 206044884,
  "lat": 53.4230259,
  "lon": 51.0884559,
  "tags": {
    "name": "19 км",
    "railway": "station",
    "uic_ref": "2025937"
  }
},
{
  "type": "node",
  "id": 206044934,
  "lat": 53.5319577,
  "lon": 51.1443604,
  "tags": {
    "name": "Сарбай",
    "railway": "station",
    "uic_ref": "2024642"
  }
},
{
  "type": "node",
  "id": 206045373,
  "lat": 53.8192721,
  "lon": 51.2759775,
  "tags": {
    "name": "72 км",
    "railway": "station"
  }
},
{
  "type": "node",
  "id": 206045436,
  "lat": 53.9293306,
  "lon": 51.1962092,
  "tags": {
    "name": "Серные Воды 2",
    "railway": "station",
    "uic_ref": "2024645"
  }
},
{
  "type": "node",
  "id": 206045444,
  "lat": 54.3802335,
  "lon": 51.2163253,
  "tags": {
    "name": "Сосна",
    "railway": "station",
    "uic_ref": "2024694"
  }
},
{
  "type": "node",
  "id": 206045738,
  "lat": 53.7451989,
  "lon": 51.3156815,
  "tags": {
    "name": "62 км",
    "railway": "station",
    "uic_ref": "2025939"
  }
},
{
  "type": "node",
  "id": 206046581,
  "lat": 53.6001110,
  "lon": 51.8041872,
  "tags": {
    "esr:user": "659207",
    "name": "Подбельская",
    "name:en": "Podbelskaya",
    "public_transport": "stop_position",
    "railway": "station",
    "train": "yes",
    "uic_ref": "2024648"
  }
},
{
  "type": "node",
  "id": 206046649,
  "lat": 54.2905408,
  "lon": 51.7936796,
  "tags": {
    "name": "Шелашниково",
    "public_transport": "stop_position",
    "railway": "station",
    "train": "yes",
    "uic_ref": "2024698"
  }
},
{
  "type": "node",
  "id": 206046967,
  "lat": 53.0577457,
  "lon": 52.0318914,
  "tags": {
    "name": "14 км",
    "railway": "station"
  }
},
{
  "type": "node",
  "id": 206047041,
  "lat": 54.2354621,
  "lon": 51.9617271,
  "tags": {
    "name": "Барково",
    "railway": "station",
    "uic_ref": "2024880"
  }
},
{
  "type": "node",
  "id": 206047187,
  "lat": 55.3127833,
  "lon": 52.0088920,
  "tags": {
    "name": "Заинск",
    "name:ja": "ザインスク",
    "name:ru": "Заинск",
    "public_transport": "stop_position",
    "railway": "station",
    "train": "yes",
    "uic_name": "Zainsk",
    "uic_ref": "2024714"
  }
},
{
  "type": "node",
  "id": 206047967,
  "lat": 54.9195453,
  "lon": 52.1389131,
  "tags": {
    "name": "Альметьевская",
    "name:ru": "Альметьевская",
    "public_transport": "stop_position",
    "railway": "station",
    "train": "yes",
    "uic_name": "Almetevskaya",
    "uic_ref": "2024713"
  }
},
{
  "type": "node",
  "id": 206048113,
  "lat": 55.0839603,
  "lon": 52.0683909,
  "tags": {
    "name": "Маврино",
    "railway": "station",
    "uic_ref": "2024789"
  }
},
{
  "type": "node",
  "id": 206048500,
  "lat": 54.2841612,
  "lon": 52.2469938,
  "tags": {
    "name": "Маклауш",
    "public_transport": "stop_position",
    "railway": "station",
    "train": "yes",
    "uic_ref": "2024703"
  }
},
{
  "type": "node",
  "id": 206050080,
  "lat": 54.4208861,
  "lon": 52.5380164,
  "tags": {
    "name": "6 км",
    "public_transport": "stop_position",
    "railway": "station",
    "train": "yes",
    "uic_ref": "2024995"
  }
},
{
  "type": "node",
  "id": 206050187,
  "lat": 54.5100774,
  "lon": 52.5249788,
  "tags": {
    "name": "Ялан",
    "public_transport": "stop_position",
    "railway": "station",
    "train": "yes",
    "uic_ref": "2025959"
  }
},
{
  "type": "node",
  "id": 206050499,
  "lat": 53.5843014,
  "lon": 52.8738239,
  "tags": {
    "name": "Асекеево",
    "name:ja": "アセケーエヴォ",
    "okato:user": "53207807002",
    "public_transport": "stop_position",
    "railway": "station",
    "train": "yes",
    "uic_ref": "2024660"
  }
},
{
  "type": "node",
  "id": 206051205,
  "lat": 54.6680881,
  "lon": 53.1253615,
  "tags": {
    "name": "Байрякино",
    "public_transport": "stop_position",
    "railway": "station",
    "train": "yes",
    "uic_ref": "2024719"
  }
},
{
  "type": "node",
  "id": 206203612,
  "lat": 55.4306830,
  "lon": 84.8424004,
  "tags": {
    "gns:dsg": "RSTN: railroad station",
    "gns:int_name": "Stantsiya Arlyuk",
    "gns:name": "Станция Арлюк",
    "gns:ufi": "9255340",
    "int_name": "Arlyuk",
    "name": "Арлюк",
    "railway": "station",
    "source": "NGA GNS esr",
    "uic_ref": "2028038"
  }
},
{
  "type": "node",
  "id": 208676751,
  "lat": 55.0861808,
  "lon": 38.8052754,
  "tags": {
    "esr:user": "233805",
    "name": "Голутвин",
    "name:en": "Golutvin",
    "name:ru": "Голутвин",
    "operator": "ОАО «РЖД»",
    "operator:branch": "Московская железная дорога",
    "public_transport": "station",
    "railway": "station",
    "train": "yes",
    "uic_name": "Golutvin",
    "uic_ref": "2000050",
    "wheelchair": "yes",
    "wikidata": "Q4142658"
  }
},
{
  "type": "node",
  "id": 208677806,
  "lat": 54.9161434,
  "lon": 39.2586378,
  "tags": {
    "esr:user": "234403",
    "name": "Фруктовая",
    "name:en": "Fruktovaya",
    "operator": "ОАО «РЖД»",
    "operator:branch": "Московская железная дорога",
    "public_transport": "station",
    "railway": "station",
    "train": "yes",
    "uic_ref": "2000043",
    "wikidata": "Q4493073"
  }
},
{
  "type": "node",
  "id": 208731791,
  "lat": 53.1534556,
  "lon": 44.2772680,
  "tags": {
    "esr:user": "633404",
    "name": "Студенец",
    "operator": "ОАО «РЖД»",
    "operator:branch": "Куйбышевская железная дорога",
    "public_transport": "station",
    "railway": "station",
    "train": "yes",
    "uic_ref": "2024581"
  }
},
{
  "type": "node",
  "id": 208748321,
  "lat": 53.2762686,
  "lon": 44.4700898,
  "tags": {
    "esr:user": "633508",
    "name": "Симанщина",
    "operator": "ОАО «РЖД»",
    "operator:branch": "Куйбышевская железная дорога",
    "public_transport": "station",
    "railway": "station",
    "train": "yes",
    "uic_ref": "2024796"
  }
},
{
  "type": "node",
  "id": 208928479,
  "lat": 53.2770372,
  "lon": 44.7106943,
  "tags": {
    "esr:user": "633616",
    "name": "Рамзай",
    "operator": "ОАО «РЖД»",
    "operator:branch": "Куйбышевская железная дорога",
    "public_transport": "station",
    "railway": "station",
    "train": "yes",
    "uic_ref": "2024582"
  }
},
{
  "type": "node",
  "id": 209159660,
  "lat": 53.2450797,
  "lon": 43.1666079,
  "tags": {
    "esr:user": "632914",
    "name": "Глебовка",
    "operator": "ОАО «РЖД»",
    "operator:branch": "Куйбышевская железная дорога",
    "public_transport": "station",
    "railway": "station",
    "train": "yes",
    "uic_ref": "2024573"
  }
},
{
  "type": "node",
  "id": 209159720,
  "lat": 53.2123829,
  "lon": 43.0353097,
  "tags": {
    "esr:user": "632906",
    "name": "Башмаково",
    "name:ja": "バシマコヴォ",
    "operator": "ОАО «РЖД»",
    "operator:branch": "Куйбышевская железная дорога",
    "public_transport": "station",
    "railway": "station",
    "train": "yes",
    "uic_name": "Baschmakowo",
    "uic_ref": "2024881"
  }
},
{
  "type": "node",
  "id": 209160192,
  "lat": 53.2027352,
  "lon": 42.9080380,
  "tags": {
    "esr:user": "632825",
    "name": "Кандиевка",
    "operator": "ОАО «РЖД»",
    "operator:branch": "Куйбышевская железная дорога",
    "public_transport": "station",
    "railway": "station",
    "train": "yes",
    "uic_ref": "2024572"
  }
},
{
  "type": "node",
  "id": 209160707,
  "lat": 53.2315729,
  "lon": 42.6622963,
  "tags": {
    "esr:user": "632806",
    "name": "Соседка",
    "operator": "ОАО «РЖД»",
    "operator:branch": "Куйбышевская железная дорога",
    "public_transport": "station",
    "railway": "station",
    "train": "yes",
    "uic_name": "Sosedka",
    "uic_ref": "2024571"
  }
},
{
  "type": "node",
  "id": 209161486,
  "lat": 53.3977383,
  "lon": 42.1796160,
  "tags": {
    "esr:user": "632327",
    "name": "Фитингоф",
    "name:ru": "Фитингоф",
    "operator": "ОАО «РЖД»",
    "operator:branch": "Куйбышевская железная дорога",
    "public_transport": "station",
    "railway": "station",
    "train": "yes",
    "uic_ref": "2024565"
  }
},
{
  "type": "node",
  "id": 209477356,
  "lat": 53.7484182,
  "lon": 40.2557972,
  "tags": {
    "esr:user": "631127",
    "name": "Еголдаево",
    "operator": "ОАО «РЖД»",
    "operator:branch": "Куйбышевская железная дорога",
    "public_transport": "station",
    "railway": "station",
    "train": "yes",
    "uic_ref": "2024551"
  }
},
{
  "type": "node",
  "id": 209477424,
  "lat": 53.7053600,
  "lon": 40.1359909,
  "tags": {
    "esr:user": "223822",
    "name": "Ряжск II",
    "operator": "ОАО «РЖД»",
    "operator:branch": "Московская железная дорога",
    "public_transport": "station",
    "railway": "station",
    "train": "yes",
    "uic_ref": "2001081"
  }
},
{
  "type": "node",
  "id": 215641217,
  "lat": 55.0214616,
  "lon": 85.9383282,
  "tags": {
    "esr:user": "872307",
    "gns:dsg": "RSTN: railroad station",
    "gns:int_name": "Stantsiya Plotnikovo",
    "gns:name": "Станция Плотниково",
    "gns:ufi": "-2983344",
    "int_name": "Plotnikovo",
    "name": "Плотниково",
    "railway": "station",
    "source": "NGA GNS esr",
    "uic_name": "Plotnikowo",
    "uic_ref": "2028051"
  }
},
{
  "type": "node",
  "id": 215649502,
  "lat": 54.6794992,
  "lon": 86.1724853,
  "tags": {
    "esr:user": "872504",
    "int_name": "Leninsk-Kuznetskiy Pervyy",
    "name": "Ленинск-Кузнецкий-1",
    "network": "РЖД",
    "operator": "Западно-Сибирская железная дорога",
    "public_transport": "station",
    "railway": "station",
    "train": "yes",
    "uic_name": "Leninsk-Kusnezkij 1",
    "uic_ref": "2028050"
  }
},
{
  "type": "node",
  "id": 215664786,
  "lat": 54.6203643,
  "lon": 86.2065817,
  "tags": {
    "int_name": "Leninsk-Kuznetskiy Vtoroy",
    "name": "Ленинск-Кузнецкий 2",
    "railway": "station",
    "uic_ref": "2028004"
  }
},
{
  "type": "node",
  "id": 215701856,
  "lat": 54.1290604,
  "lon": 86.2779522,
  "tags": {
    "alt_name": "Артышта I",
    "name": "Артышта 1",
    "railway": "station",
    "source": "GNS, extrapolation",
    "uic_ref": "2028089"
  }
},
{
  "type": "node",
  "id": 215714355,
  "lat": 54.0054563,
  "lon": 86.5374854,
  "tags": {
    "name": "Красный Камень",
    "railway": "station",
    "source": "GNS",
    "uic_name": "Krasnij kamen",
    "uic_ref": "2028096"
  }
},
{
  "type": "node",
  "id": 215726447,
  "lat": 53.7833092,
  "lon": 86.8386868,
  "tags": {
    "name": "Спиченково",
    "railway": "station",
    "source": "GNS",
    "uic_ref": "2028099"
  }
},
{
  "type": "node",
  "id": 215726555,
  "lat": 53.8250381,
  "lon": 86.7661947,
  "tags": {
    "esr:user": "864002",
    "gns:dsg": "RSTN: railroad station",
    "gns:int_name": "Stantsiya Zenkovo",
    "gns:name": "Станция Зенково",
    "gns:ufi": "10389785",
    "int_name": "Zenkovo",
    "name": "Зеньково",
    "railway": "station",
    "source": "NGA GNS esr",
    "uic_ref": "2028098"
  }
},
{
  "type": "node",
  "id": 216918798,
  "lat": 53.4424496,
  "lon": 87.3219260,
  "tags": {
    "esr:user": "865229",
    "name": "428 км",
    "railway": "station",
    "uic_ref": "2029055"
  }
},
{
  "type": "node",
  "id": 220203803,
  "lat": 55.7154769,
  "lon": 37.6874448,
  "tags": {
    "esr:user": "199515",
    "name": "Угрешская",
    "name:de": "Ugreschskaja",
    "operator": "ОАО «РЖД»",
    "railway": "station",
    "wikidata": "Q4469153",
    "wikipedia": "ru:Угрешская (станция)"
  }
},
{
  "type": "node",
  "id": 221116973,
  "lat": 53.4094922,
  "lon": 87.2748928,
  "tags": {
    "esr:user": "865208",
    "gns:dsg": "RSTN: railroad station",
    "gns:int_name": "Stantsiya Malinovka",
    "gns:name": "Станция Малиновка",
    "gns:ufi": "10794713",
    "int_name": "Malinovka",
    "name": "Малиновка",
    "railway": "station",
    "source": "NGA GNS esr",
    "uic_ref": "2028113"
  }
},
{
  "type": "node",
  "id": 221116988,
  "lat": 53.4249991,
  "lon": 87.3043848,
  "tags": {
    "esr:user": "865214",
    "name": "431 км",
    "railway": "station",
    "uic_ref": "2028044"
  }
},
{
  "type": "node",
  "id": 221121779,
  "lat": 53.2817177,
  "lon": 87.2052057,
  "tags": {
    "esr:user": "865445",
    "gns:dsg": "RSD: railroad siding",
    "gns:fc": "S - Spot Features",
    "gns:int_name": "Raz\"yezd Osman",
    "gns:name": "Разъезд Осман",
    "gns:ufi": "10794774",
    "int_name": "Osman",
    "name": "Осман",
    "railway": "station",
    "source": "NGA GNS",
    "uic_ref": "2028115"
  }
},
{
  "type": "node",
  "id": 221121877,
  "lat": 53.3588760,
  "lon": 87.2701842,
  "tags": {
    "esr:user": "865318",
    "gns:dsg": "RSTP: railroad stop",
    "gns:int_name": "Ostanovochnyy Punkt Pionerskiy Lager'",
    "gns:name": "Остановочный Пункт Пионерский Лагерь",
    "gns:ufi": "10794745",
    "int_name": "Pionerskiy Lager'",
    "name": "Пионерский лагерь",
    "railway": "station",
    "source": "NGA GNS esr",
    "uic_ref": "2028100"
  }
},
{
  "type": "node",
  "id": 221143092,
  "lat": 53.1141443,
  "lon": 87.5590273,
  "tags": {
    "esr:user": "865801",
    "name": "Каз",
    "railway": "station",
    "source": "GNS",
    "uic_ref": "2028808"
  }
},
{
  "type": "node",
  "id": 221176927,
  "lat": 52.8616211,
  "lon": 87.9177464,
  "tags": {
    "gns:dsg": "RSTN: railroad station",
    "gns:int_name": "Stantsiya Shalym",
    "gns:name": "Станция Шалым",
    "gns:ufi": "10786002",
    "int_name": "Shalym",
    "name": "Шалым",
    "public_transport": "station",
    "railway": "station",
    "source": "NGA GNS esr"
  }
},
{
  "type": "node",
  "id": 221186748,
  "lat": 53.7258594,
  "lon": 87.2521753,
  "tags": {
    "esr:user": "864300",
    "name": "Абагур-Лесной",
    "railway": "station",
    "uic_ref": "2028104"
  }
},
{
  "type": "node",
  "id": 223224870,
  "lat": 57.8020000,
  "lon": 36.9113500,
  "tags": {
    "esr:user": "051229",
    "name": "Подобино",
    "name:ru": "Подобино",
    "public_transport": "station",
    "railway": "station",
    "train": "yes",
    "uic_ref": "2004433",
    "wikidata": "Q86679982",
    "wikipedia": "ru:Подобино (станция)"
  }
},
{
  "type": "node",
  "id": 224401960,
  "lat": 58.7364988,
  "lon": 30.3259880,
  "tags": {
    "esr:user": "058340",
    "name": "Заклинье",
    "public_transport": "station",
    "railway": "station",
    "train": "yes",
    "uic_ref": "2004116"
  }
},
{
  "type": "node",
  "id": 224414298,
  "lat": 59.4546051,
  "lon": 30.3403161,
  "tags": {
    "esr:user": "059023",
    "name": "Красница",
    "note": "Википедия и викиданные не актуальны, платформа переименована",
    "operator:branch": "Октябрьская железная дорога",
    "public_transport": "station",
    "railway": "station",
    "train": "yes",
    "uic_ref": "2005369"
  }
},
{
  "type": "node",
  "id": 224414302,
  "lat": 59.4298457,
  "lon": 30.3415376,
  "tags": {
    "esr:user": "059019",
    "internet_access": "no",
    "name": "Михайловка",
    "operator:branch": "Октябрьская железная дорога",
    "public_transport": "station",
    "railway": "station",
    "train": "yes",
    "uic_ref": "2005296",
    "wikidata": "Q4297663",
    "wikipedia": "ru:Михайловка (платформа)"
  }
},
{
  "type": "node",
  "id": 224845097,
  "lat": 60.7987170,
  "lon": 28.9572634,
  "tags": {
    "esr:user": "020061",
    "name": "Гвардейское",
    "name:fi": "Karisalmi",
    "operator:branch": "Октябрьская железная дорога",
    "public_transport": "station",
    "railway": "station",
    "train": "yes",
    "uic_ref": "2005016"
  }
},
{
  "type": "node",
  "id": 224852441,
  "lat": 58.4778145,
  "lon": 30.2843070,
  "tags": {
    "name": "Передольская",
    "public_transport": "station",
    "railway": "station",
    "train": "yes",
    "uic_name": "Peredolskaya",
    "uic_ref": "2003984"
  }
},
{
  "type": "node",
  "id": 224915528,
  "lat": 59.1940117,
  "lon": 28.3855889,
  "tags": {
    "esr:user": "073251",
    "name": "Вервенка",
    "operator:branch": "Октябрьская железная дорога",
    "public_transport": "station",
    "railway": "station",
    "train": "yes",
    "uic_ref": "2004188"
  }
},
{
  "type": "node",
  "id": 233114458,
  "lat": 59.8916196,
  "lon": 31.9236804,
  "tags": {
    "esr:user": "048122",
    "name": "Новый Быт",
    "operator:branch": "Октябрьская железная дорога",
    "public_transport": "station",
    "railway": "station",
    "train": "yes",
    "uic_ref": "2004168",
    "wikidata": "Q4326601",
    "wikipedia": "ru:Новый Быт (станция)"
  }
},
{
  "type": "node",
  "id": 240677706,
  "lat": 59.7284402,
  "lon": 29.0106587,
  "tags": {
    "esr:user": "074702",
    "name": "Копорье",
    "operator:branch": "Октябрьская железная дорога",
    "railway": "station",
    "train": "yes",
    "uic_ref": "2004193"
  }
},
{
  "type": "node",
  "id": 241895309,
  "lat": 56.7505929,
  "lon": 60.6087731,
  "tags": {
    "esr:user": "781004",
    "name": "Керамик",
    "name:en": "Ceramic",
    "public_transport": "stop_position",
    "railway": "station",
    "service": "local",
    "train": "yes",
    "uic_name": "Keramik",
    "uic_ref": "2030475"
  }
},
{
  "type": "node",
  "id": 241895547,
  "lat": 56.6772170,
  "lon": 60.5773922,
  "tags": {
    "esr:user": "781108",
    "name": "Сысерть",
    "name:en": "Sysert'",
    "name:ja": "スィセールチ",
    "public_transport": "stop_position",
    "railway": "station",
    "train": "yes",
    "uic_ref": "2030057"
  }
},
{
  "type": "node",
  "id": 241970980,
  "lat": 56.9790405,
  "lon": 60.3693448,
  "tags": {
    "esr:user": "771500",
    "name": "Исеть",
    "name:en": "Iset",
    "name:ja": "イセチ",
    "network": "Свердловская железная дорога - филиал ОАО «РЖД»",
    "operator": "Свердловская железная дорога - филиал ОАО «РЖД»",
    "public_transport": "station",
    "railway": "station",
    "train": "yes",
    "uic_ref": "2030053"
  }
},
{
  "type": "node",
  "id": 242802607,
  "lat": 53.0565173,
  "lon": 103.1654564,
  "tags": {
    "name": "Касьяновка",
    "railway": "station"
  }
},
{
  "type": "node",
  "id": 242810991,
  "lat": 53.4278089,
  "lon": 102.6739707,
  "tags": {
    "railway": "station"
  }
},
{
  "type": "node",
  "id": 242819388,
  "lat": 53.7543280,
  "lon": 102.2410000,
  "tags": {
    "name": "Делюр",
    "railway": "station",
    "uic_ref": "2054804"
  }
},
{
  "type": "node",
  "id": 242824849,
  "lat": 54.0414157,
  "lon": 101.9582439,
  "tags": {
    "name": "Перевоз",
    "name:en": "Perevoz",
    "railway": "station",
    "uic_ref": "2054803"
  }
},
{
  "type": "node",
  "id": 243073737,
  "lat": 60.0968163,
  "lon": 30.9651221,
  "tags": {
    "esr:user": "036303",
    "name": "Борисова Грива",
    "operator:branch": "Октябрьская железная дорога",
    "public_transport": "station",
    "railway": "station",
    "train": "yes",
    "uic_ref": "2007004",
    "wikidata": "Q4093916",
    "wikipedia": "ru:Борисова Грива (станция)"
  }
},
{
  "type": "node",
  "id": 243333429,
  "lat": 54.6299300,
  "lon": 100.1324110,
  "tags": {
    "name": "Будагово",
    "railway": "station"
  }
},
{
  "type": "node",
  "id": 243349533,
  "lat": 51.2505500,
  "lon": 108.8311505,
  "tags": {
    "esr:user": "940203",
    "name": "Декабристы",
    "name:en": "Decembrists",
    "name:ru": "Декабристы",
    "public_transport": "station",
    "railway": "station",
    "uic_ref": "2050100"
  }
},
{
  "type": "node",
  "id": 243349773,
  "lat": 51.1524487,
  "lon": 108.9371703,
  "tags": {
    "esr:user": "940307",
    "name": "Баляга",
    "name:en": "Balyaga",
    "name:ja": "バリャガ",
    "name:ru": "Баляга",
    "railway": "station",
    "uic_name": "Baljaga",
    "uic_ref": "2050348"
  }
},
{
  "type": "node",
  "id": 243570866,
  "lat": 51.7849295,
  "lon": 115.2745338,
  "tags": {
    "esr:user": "947656",
    "express:code": "2050398",
    "name": "Зубарево",
    "name:ru": "Зубарево",
    "public_transport": "stop_position",
    "railway": "station",
    "train": "yes",
    "uic_ref": "2050398"
  }
},
{
  "type": "node",
  "id": 244056986,
  "lat": 58.1305355,
  "lon": 30.2598087,
  "tags": {
    "esr:user": "058001",
    "internet_access": "no",
    "name": "Сольцы",
    "public_transport": "station",
    "railway": "station",
    "train": "yes",
    "uic_name": "Solzi",
    "uic_ref": "2004606"
  }
},
{
  "type": "node",
  "id": 244429915,
  "lat": 52.6307166,
  "lon": 126.7502401,
  "tags": {
    "name": "Сиваки",
    "name:ja": "シヴァキ",
    "railway": "station",
    "uic_name": "Sivaki",
    "uic_ref": "2050464",
    "wikidata": "Q14927635",
    "wikipedia": "ru:Сиваки (станция)"
  }
},
{
  "type": "node",
  "id": 244583610,
  "lat": 60.2400846,
  "lon": 32.8036239,
  "tags": {
    "esr:user": "048828",
    "name": "Юги",
    "operator:branch": "Октябрьская железная дорога",
    "public_transport": "station",
    "railway": "station",
    "train": "yes",
    "uic_ref": "2004675"
  }
},
{
  "type": "node",
  "id": 244602700,
  "lat": 62.2239211,
  "lon": 34.3434056,
  "tags": {
    "esr:user": "010905",
    "name": "Нигозеро",
    "name:ru": "Нигозеро",
    "public_transport": "station",
    "railway": "station",
    "uic_ref": "2004335"
  }
},
{
  "type": "node",
  "id": 244887872,
  "lat": 56.2525398,
  "lon": 43.5804983,
  "tags": {
    "esr:user": "264803",
    "name": "Игумново",
    "operator": "ОАО «РЖД»",
    "operator:branch": "Горьковская железная дорога",
    "public_transport": "station",
    "railway": "station",
    "train": "yes",
    "uic_ref": "2060444"
  }
},
{
  "type": "node",
  "id": 245419167,
  "lat": 60.9076748,
  "lon": 30.0800497,
  "tags": {
    "esr:user": "022902",
    "name": "Мюллюпельто",
    "name:fi": "Myllypelto",
    "name:ru": "Мюллюпельто",
    "operator:branch": "Октябрьская железная дорога",
    "public_transport": "station",
    "railway": "station",
    "train": "yes",
    "uic_ref": "2004253",
    "wikidata": "Q4310053",
    "wikipedia": "ru:Мюллюпельто"
  }
},
{
  "type": "node",
  "id": 245423977,
  "lat": 61.6532151,
  "lon": 30.3785611,
  "tags": {
    "esr:user": "023642",
    "name": "Куокканиеми",
    "public_transport": "station",
    "railway": "station",
    "train": "yes",
    "uic_name": "Kuokkaniemi",
    "uic_ref": "2004264",
    "wikidata": "Q98280439",
    "wikipedia": "ru:Куокканиэми (станция)"
  }
},
{
  "type": "node",
  "id": 245427906,
  "lat": 61.0190241,
  "lon": 29.4158241,
  "tags": {
    "esr:user": "022300",
    "name": "Бородинское",
    "operator:branch": "Октябрьская железная дорога",
    "public_transport": "station",
    "railway": "station",
    "train": "yes",
    "uic_ref": "2005252",
    "wikidata": "Q73270994",
    "wikipedia": "ru:Бородинское (станция)"
  }
},
{
  "type": "node",
  "id": 245428839,
  "lat": 60.9619743,
  "lon": 29.1083892,
  "tags": {
    "esr:user": "021702",
    "name": "Каменногорск",
    "name:de": "Kamennogorsk",
    "name:en": "Kamennogorsk",
    "name:fi": "Antrea",
    "name:fr": "Kamennogorsk",
    "name:ru": "Каменногорск",
    "name:sv": "St. Andrea",
    "old_name": "Antrea",
    "old_name:fi": "Antrea",
    "operator:branch": "Октябрьская железная дорога",
    "public_transport": "station",
    "railway": "station",
    "train": "yes",
    "uic_ref": "2005351",
    "wikidata": "Q19742882",
    "wikimedia_commons": "File:Ст. Каменногорск 5.jpg",
    "wikipedia": "ru:Каменногорск I"
  }
},
{
  "type": "node",
  "id": 245429669,
  "lat": 60.8600000,
  "lon": 28.9475200,
  "tags": {
    "esr:user": "021609",
    "name": "Возрождение",
    "name:ru": "Возрождение",
    "operator:branch": "Октябрьская железная дорога",
    "public_transport": "station",
    "railway": "station",
    "train": "yes",
    "uic_ref": "2005395",
    "wikidata": "Q112438876"
  }
},
{
  "type": "node",
  "id": 245429690,
  "lat": 60.9189169,
  "lon": 28.9721319,
  "tags": {
    "esr:user": "021613",
    "name": "Ханнила",
    "name:fi": "Hannila",
    "name:ru": "Ханнила",
    "old_name": "Hannila",
    "operator:branch": "Октябрьская железная дорога",
    "public_transport": "station",
    "railway": "station",
    "train": "yes",
    "uic_ref": "2005397"
  }
},
{
  "type": "node",
  "id": 246582496,
  "lat": 59.9286873,
  "lon": 29.6525063,
  "tags": {
    "esr:user": "075308",
    "name": "Бронка",
    "public_transport": "station",
    "railway": "station",
    "train": "yes",
    "uic_ref": "2005074",
    "wikidata": "Q4097015",
    "wikipedia": "ru:Бронка (станция)"
  }
},
{
  "type": "node",
  "id": 246582497,
  "lat": 59.9414481,
  "lon": 29.5654501,
  "tags": {
    "esr:user": "075204",
    "name": "Большая Ижора",
    "operator:branch": "Октябрьская железная дорога",
    "public_transport": "station",
    "railway": "station",
    "train": "yes",
    "uic_ref": "2004196",
    "wikidata": "Q4091351",
    "wikipedia": "ru:Большая Ижора (станция)"
  }
},
{
  "type": "node",
  "id": 246582499,
  "lat": 59.9551631,
  "lon": 29.4154038,
  "tags": {
    "esr:user": "075007",
    "internet_access": "no",
    "name": "Лебяжье",
    "name:ru": "Лебяжье",
    "operator:branch": "Октябрьская железная дорога",
    "public_transport": "station",
    "railway": "station",
    "train": "yes",
    "uic_ref": "2004195",
    "wikidata": "Q4256111",
    "wikipedia": "ru:Лебяжье (станция)"
  }
},
{
  "type": "node",
  "id": 246671148,
  "lat": 56.2729287,
  "lon": 91.0906384,
  "tags": {
    "name": "Чернореченская",
    "railway": "station",
    "uic_name": "Tschernoretschenskaj",
    "uic_ref": "2038255"
  }
},
{
  "type": "node",
  "id": 246671567,
  "lat": 56.1887412,
  "lon": 91.2785007,
  "tags": {
    "name": "Малиногорка",
    "railway": "station"
  }
},
{
  "type": "node",
  "id": 247213055,
  "lat": 56.2986857,
  "lon": 41.7076176,
  "tags": {
    "esr:user": "263355",
    "name": "Сарыево",
    "operator": "ОАО «РЖД»",
    "operator:branch": "Горьковская железная дорога",
    "public_transport": "station",
    "railway": "station",
    "train": "yes",
    "uic_ref": "2060755"
  }
},
{
  "type": "node",
  "id": 247213085,
  "lat": 56.3842764,
  "lon": 41.3630510,
  "tags": {
    "esr:user": "263113",
    "name": "Ковров 2",
    "operator": "ОАО «РЖД»",
    "operator:branch": "Горьковская железная дорога",
    "public_transport": "station",
    "railway": "station",
    "train": "yes",
    "uic_ref": "2061512"
  }
},
{
  "type": "node",
  "id": 247213111,
  "lat": 56.3624839,
  "lon": 41.0751153,
  "tags": {
    "alt_name": "НОВКИ1",
    "esr:user": "263001",
    "name": "Новки 1",
    "operator": "ОАО «РЖД»",
    "operator:branch": "Горьковская железная дорога",
    "public_transport": "station",
    "railway": "station",
    "train": "yes",
    "uic_ref": "2060347"
  }
},
{
  "type": "node",
  "id": 248502244,
  "lat": 53.6569980,
  "lon": 84.8114188,
  "tags": {
    "name": "Батунная",
    "railway": "station",
    "uic_ref": "2044822"
  }
},
{
  "type": "node",
  "id": 248605545,
  "lat": 53.2821030,
  "lon": 84.3150275,
  "tags": {
    "name": "Баюново",
    "name:en": "Bayunovo",
    "railway": "station",
    "uic_ref": "2044804"
  }
},
{
  "type": "node",
  "id": 248605809,
  "lat": 56.0946314,
  "lon": 91.7081371,
  "tags": {
    "name": "Кемчуг",
    "railway": "station"
  }
},
{
  "type": "node",
  "id": 248605841,
  "lat": 56.1361627,
  "lon": 91.6318363,
  "tags": {
    "name": "Косачи",
    "railway": "station",
    "uic_ref": "2038192"
  }
},
{
  "type": "node",
  "id": 248605946,
  "lat": 56.0748928,
  "lon": 91.9816649,
  "tags": {
    "name": "Зеледеево",
    "railway": "station",
    "uic_ref": "2038194"
  }
},
{
  "type": "node",
  "id": 248606127,
  "lat": 56.0513802,
  "lon": 92.5303836,
  "tags": {
    "name": "Минино",
    "railway": "station"
  }
},
{
  "type": "node",
  "id": 248606271,
  "lat": 56.1002902,
  "lon": 92.2221552,
  "tags": {
    "name": "Кача",
    "name:en": "Kacha",
    "name:ru": "Кача",
    "railway": "station"
  }
},
{
  "type": "node",
  "id": 248606294,
  "lat": 56.0424166,
  "lon": 92.7630660,
  "tags": {
    "name": "Бугач",
    "public_transport": "station",
    "railway": "station",
    "uic_ref": "2038003"
  }
},
{
  "type": "node",
  "id": 248606397,
  "lat": 55.9984467,
  "lon": 92.9516804,
  "tags": {
    "name": "Злобино",
    "name:en": "Zlobino",
    "public_transport": "stop_position",
    "railway": "station",
    "train": "yes",
    "uic_name": "Zlobino",
    "uic_ref": "2038004"
  }
},
{
  "type": "node",
  "id": 248606407,
  "lat": 55.9800045,
  "lon": 92.8416014,
  "tags": {
    "esr:user": "891401",
    "name": "Енисей",
    "name:en": "Yenisey",
    "public_transport": "stop_position",
    "railway": "station",
    "train": "yes",
    "uic_name": "Enisej",
    "uic_ref": "2038002"
  }
},
{
  "type": "node",
  "id": 248874332,
  "lat": 56.4903341,
  "lon": 90.8640391,
  "tags": {
    "name": "Тулат",
    "railway": "station",
    "uic_ref": "2038161"
  }
},
{
  "type": "node",
  "id": 248916189,
  "lat": 55.7524929,
  "lon": 38.0082811,
  "tags": {
    "esr:user": "230402",
    "name": "Железнодорожная",
    "name:en": "Zheleznodorozhnаyа",
    "name:ru": "Железнодорожная",
    "operator": "ОАО «РЖД»",
    "operator:branch": "Московская железная дорога",
    "public_transport": "station",
    "railway": "station",
    "train": "yes",
    "uic_name": "Jeleznodorojnaya",
    "uic_ref": "2001070",
    "wikidata": "Q4178806"
  }
},
{
  "type": "node",
  "id": 252931430,
  "lat": 56.0401687,
  "lon": 29.9512035,
  "tags": {
    "esr:user": "067000",
    "name": "Невель-1",
    "operator:branch": "Октябрьская железная дорога",
    "public_transport": "station",
    "railway": "station",
    "train": "yes",
    "uic_ref": "2004735"
  }
},
{
  "type": "node",
  "id": 253334673,
  "lat": 55.7002600,
  "lon": 36.8793818,
  "tags": {
    "esr:user": "182406",
    "name": "Звенигород",
    "name:en": "Zvenigorod",
    "operator": "ОАО «РЖД»",
    "operator:branch": "Московская железная дорога",
    "public_transport": "station",
    "railway": "station",
    "shelter": "yes",
    "train": "yes",
    "uic_ref": "2000725",
    "wheelchair": "yes",
    "wikidata": "Q4189461",
    "wikipedia": "ru:Звенигород (станция)"
  }
},
{
  "type": "node",
  "id": 253337001,
  "lat": 55.6151881,
  "lon": 36.9867352,
  "tags": {
    "esr:user": "182302",
    "express:user": "2002920",
    "name": "Голицыно",
    "name:en": "Golitsyno",
    "operator": "ОАО «РЖД»",
    "operator:branch": "Московская железная дорога",
    "public_transport": "station",
    "railway": "station",
    "train": "yes",
    "uic_ref": "2002920",
    "wheelchair": "no",
    "wikidata": "Q4141611",
    "wikipedia": "ru:Голицыно (станция)"
  }
},
{
  "type": "node",
  "id": 253438831,
  "lat": 55.9264949,
  "lon": 36.7015587,
  "tags": {
    "esr:user": "197308",
    "express:user": "2002078",
    "name": "Холщевики",
    "name:en": "Kholshchyoviki",
    "operator": "ОАО «РЖД»",
    "operator:branch": "Московская железная дорога",
    "public_transport": "station",
    "railway": "station",
    "train": "yes",
    "uic_ref": "2002078",
    "wikidata": "Q4499510"
  }
},
{
  "type": "node",
  "id": 253440886,
  "lat": 54.6962993,
  "lon": 35.9719774,
  "tags": {
    "esr:user": "189000",
    "gauge": "1520",
    "name": "Шаня",
    "railway": "station",
    "uic_ref": "2001780"
  }
},
{
  "type": "node",
  "id": 253440910,
  "lat": 54.6196073,
  "lon": 36.1560151,
  "tags": {
    "esr:user": "188718",
    "name": "Муратовка",
    "name:en": "Muratovka",
    "operator": "ОАО «РЖД»",
    "operator:branch": "Московская железная дорога",
    "public_transport": "station",
    "railway": "station",
    "train": "yes",
    "uic_ref": "2000343",
    "wikidata": "Q18405299"
  }
},
{
  "type": "node",
  "id": 253440936,
  "lat": 54.5658955,
  "lon": 36.2443530,
  "tags": {
    "esr:user": "188601",
    "name": "Азарово",
    "name:en": "Azarovo",
    "operator": "ОАО «РЖД»",
    "operator:branch": "Московская железная дорога",
    "public_transport": "station",
    "railway": "station",
    "train": "yes",
    "uic_ref": "2000369",
    "wikidata": "Q18396312"
  }
},
{
  "type": "node",
  "id": 253463302,
  "lat": 55.0647716,
  "lon": 38.8515278,
  "tags": {
    "esr:user": "234102",
    "name": "Щурово",
    "name:en": "Shchurovo",
    "name:ru": "Щурово",
    "operator": "ОАО «РЖД»",
    "operator:branch": "Московская железная дорога",
    "public_transport": "station",
    "railway": "station",
    "train": "yes",
    "uic_ref": "2001197",
    "wikidata": "Q4529247"
  }
},
{
  "type": "node",
  "id": 253739581,
  "lat": 51.2924040,
  "lon": 47.7782873,
  "tags": {
    "name": "Плес",
    "railway": "station",
    "uic_name": "Ples",
    "uic_ref": "2020896"
  }
},
{
  "type": "node",
  "id": 254916960,
  "lat": 56.8682625,
  "lon": 35.8386299,
  "tags": {
    "esr:user": "061659",
    "name": "Дорошиха",
    "operator:branch": "Октябрьская железная дорога",
    "public_transport": "station",
    "railway": "station",
    "train": "yes",
    "uic_ref": "2006002"
  }
},
{
  "type": "node",
  "id": 255593178,
  "lat": 55.4296452,
  "lon": 36.8401684,
  "tags": {
    "esr:user": "180010",
    "name": "Бекасово I",
    "name:en": "Bekasovo I",
    "operator": "ОАО «РЖД»",
    "operator:branch": "Московская железная дорога",
    "public_transport": "station",
    "railway": "station",
    "train": "yes",
    "uic_name": "Bekasovo 1",
    "uic_ref": "2000998",
    "wikidata": "Q4081290"
  }
},
{
  "type": "node",
  "id": 255595272,
  "lat": 55.2571476,
  "lon": 37.4504090,
  "tags": {
    "esr:user": "181206",
    "name": "Сандарово",
    "name:en": "Sandarovo",
    "operator": "ОАО «РЖД»",
    "operator:branch": "Московская железная дорога",
    "public_transport": "station",
    "railway": "station",
    "train": "yes",
    "uic_ref": "2001418",
    "wikidata": "Q4407498"
  }
},
{
  "type": "node",
  "id": 257345546,
  "lat": 55.6683671,
  "lon": 98.4575512,
  "tags": {
    "name": "Облепиха",
    "railway": "station",
    "uic_ref": "2054303"
  }
},
{
  "type": "node",
  "id": 257345603,
  "lat": 55.7119007,
  "lon": 98.3965271,
  "tags": {
    "name": "Разгон",
    "railway": "station",
    "uic_ref": "2054302"
  }
},
{
  "type": "node",
  "id": 258050799,
  "lat": 53.3520576,
  "lon": 49.4803789,
  "tags": {
    "name": "Отвага",
    "public_transport": "station",
    "railway": "station",
    "train": "yes",
    "uic_ref": "2024792"
  }
},
{
  "type": "node",
  "id": 258669700,
  "lat": 55.7801256,
  "lon": 37.8628290,
  "tags": {
    "esr:user": "230205",
    "name": "Стройка",
    "name:en": "Stroyka",
    "operator": "ОАО «РЖД»",
    "operator:branch": "Московская железная дорога",
    "public_transport": "station",
    "railway": "station",
    "train": "yes",
    "uic_ref": "2000169",
    "wikidata": "Q4444171"
  }
},
{
  "type": "node",
  "id": 259630429,
  "lat": 55.7301418,
  "lon": 38.2022213,
  "tags": {
    "esr:user": "230600",
    "express:user": "2001325",
    "name": "Электроугли",
    "name:en": "Elektrougli",
    "operator": "ОАО «РЖД»",
    "operator:branch": "Московская железная дорога",
    "public_transport": "station",
    "railway": "station",
    "train": "yes",
    "uic_ref": "2001325",
    "wikidata": "Q4531111",
    "wikipedia": "ru:Электроугли (станция)"
  }
},
{
  "type": "node",
  "id": 260380366,
  "lat": 51.5012882,
  "lon": 36.6553025,
  "tags": {
    "name": "Шумаково",
    "operator": "ОАО «РЖД»",
    "operator:branch": "Юго-Восточная железная дорога",
    "public_transport": "station",
    "railway": "station",
    "train": "yes",
    "uic_ref": "2014337"
  }
},
{
  "type": "node",
  "id": 260381479,
  "lat": 54.5746586,
  "lon": 37.5946861,
  "tags": {
    "esr:user": "210729",
    "int_name": "Shulgino",
    "name": "Шульгино",
    "name:en": "Shulgino",
    "operator": "ОАО «РЖД»",
    "operator:branch": "Московская железная дорога",
    "platforms": "2",
    "public_transport": "station",
    "railway": "station",
    "train": "yes",
    "uic_ref": "2000168",
    "wikidata": "Q16721153",
    "wikipedia": "ru:Шульгино (станция)"
  }
},
{
  "type": "node",
  "id": 264574086,
  "lat": 52.8876919,
  "lon": 38.3343939,
  "tags": {
    "esr:user": "593419",
    "name": "Грунин Воргол",
    "network": "РЖД",
    "operator": "Юго-Восточная железная дорога",
    "railway": "station",
    "train": "yes",
    "uic_ref": "2015364"
  }
},
{
  "type": "node",
  "id": 264574676,
  "lat": 52.6013436,
  "lon": 38.3710933,
  "tags": {
    "esr:user": "218307",
    "name": "Пажень",
    "railway": "station",
    "uic_ref": "2000252"
  }
},
{
  "type": "node",
  "id": 265301052,
  "lat": 59.9304189,
  "lon": 30.4400968,
  "tags": {
    "alt_name": "Дача Долгорукова",
    "alt_name:ru": "Дача Долгорукова",
    "esr:user": "037109",
    "name": "Санкт-Петербург-Ладожский",
    "name:ru": "Санкт-Петербург-Ладожский",
    "network": "Октябрьская желеная дорога",
    "operator": "Российские железные дороги",
    "public_transport": "station",
    "railway": "station",
    "train": "yes",
    "uic_name": "St Petersburg Ladogskii",
    "uic_ref": "2004006",
    "wheelchair": "yes",
    "wikidata": "Q1800041",
    "wikipedia": "ru:Ладожский вокзал"
  }
},
{
  "type": "node",
  "id": 265402451,
  "lat": 55.7485149,
  "lon": 41.7662822,
  "tags": {
    "esr:user": "240156",
    "name": "Безлесная",
    "railway": "station",
    "uic_ref": "2060387"
  }
},
{
  "type": "node",
  "id": 265719893,
  "lat": 55.5469484,
  "lon": 41.6934666,
  "tags": {
    "esr:user": "243530",
    "name": "Кондаково",
    "railway": "station",
    "uic_ref": "2061479"
  }
},
{
  "type": "node",
  "id": 265720138,
  "lat": 55.5003336,
  "lon": 40.3016365,
  "tags": {
    "esr:user": "242823",
    "name": "Ильичёв",
    "operator": "ОАО «РЖД»",
    "operator:branch": "Горьковская железная дорога",
    "public_transport": "station",
    "railway": "station",
    "train": "yes",
    "uic_ref": "2060375"
  }
},
{
  "type": "node",
  "id": 265721144,
  "lat": 56.3045463,
  "lon": 41.3848958,
  "tags": {
    "esr:user": "240902",
    "name": "Ковров-Грузовой",
    "railway": "station",
    "uic_ref": "2060361"
  }
},
{
  "type": "node",
  "id": 265769931,
  "lat": 56.3918671,
  "lon": 38.3079348,
  "tags": {
    "esr:user": "236702",
    "express:user": "2001129",
    "name": "Бужаниново",
    "name:en": "Buzhaninovo",
    "operator": "ОАО «РЖД»",
    "operator:branch": "Московская железная дорога",
    "public_transport": "station",
    "railway": "station",
    "train": "yes",
    "uic_ref": "2001129",
    "wikidata": "Q18401312"
  }
},
{
  "type": "node",
  "id": 265770343,
  "lat": 56.3021734,
  "lon": 38.1371689,
  "tags": {
    "esr:user": "236305",
    "name": "Сергиев Посад",
    "name:de": "Sergijew Possad",
    "name:en": "Sergiyev Posad",
    "name:et": "Sergijev Possad",
    "name:fr": "Serguiev Possad",
    "name:hr": "Sergiyev Posad",
    "name:ru": "Сергиев Посад",
    "name:sr": "Сергијев Посад",
    "old_name": "Загорск",
    "operator": "ОАО «РЖД»",
    "operator:branch": "Московская железная дорога",
    "public_transport": "station",
    "railway": "station",
    "train": "yes",
    "uic_name": "Sergiev posad",
    "uic_ref": "2000753",
    "wikidata": "Q4417039"
  }
},
{
  "type": "node",
  "id": 265811563,
  "lat": 55.5462449,
  "lon": 36.3710488,
  "tags": {
    "esr:user": "183004",
    "express:user": "2001002",
    "name": "Дорохово",
    "name:en": "Dorokhovo",
    "public_transport": "station",
    "railway": "station",
    "uic_ref": "2001002",
    "wikidata": "Q4167029"
  }
},
{
  "type": "node",
  "id": 266426836,
  "lat": 55.8427120,
  "lon": 37.5304764,
  "tags": {
    "esr:user": "198813",
    "name": "Лихоборы",
    "name:de": "Lichobory",
    "operator": "ОАО «РЖД»",
    "railway": "station",
    "wikidata": "Q4264205",
    "wikipedia": "ru:Лихоборы (станция)"
  }
},
{
  "type": "node",
  "id": 266687908,
  "lat": 59.5445273,
  "lon": 30.8819136,
  "tags": {
    "esr:user": "031302",
    "name": "Тосно",
    "name:en": "Tosno",
    "name:ru": "Тосно",
    "operator": "ОАО «РЖД»",
    "operator:branch": "Октябрьская железная дорога",
    "public_transport": "station",
    "railway": "station",
    "start_date": "1851",
    "train": "yes",
    "uic_name": "Tosno",
    "uic_ref": "2004148",
    "wikidata": "Q4461425",
    "wikipedia": "ru:Тосно (станция)"
  }
},
{
  "type": "node",
  "id": 266730979,
  "lat": 54.1321507,
  "lon": 38.1793483,
  "tags": {
    "esr:user": "226604",
    "name": "Грицово",
    "name:ru": "Грицово",
    "operator": "ОАО «РЖД»",
    "operator:branch": "Московская железная дорога",
    "public_transport": "station",
    "railway": "station",
    "train": "yes",
    "uic_ref": "2000127",
    "wikidata": "Q109638352"
  }
},
{
  "type": "node",
  "id": 267214468,
  "lat": 68.7533062,
  "lon": 33.1602103,
  "tags": {
    "esr:user": "016954",
    "name": "Шонгуй",
    "operator": "ОАО «РЖД»",
    "operator:branch": "Октябрьская железная дорога",
    "public_transport": "station",
    "railway": "station",
    "train": "yes",
    "uic_name": "Shonguj",
    "uic_ref": "2005401"
  }
},
{
  "type": "node",
  "id": 267772268,
  "lat": 55.6534701,
  "lon": 37.8596249,
  "tags": {
    "esr:user": "194507",
    "name": "Яничкино",
    "name:en": "Yanichkino",
    "name:ru": "Яничкино",
    "railway": "station"
  }
},
{
  "type": "node",
  "id": 268104950,
  "lat": 58.5662916,
  "lon": 31.2455187,
  "tags": {
    "name": "Предузловая-Павловская",
    "public_transport": "station",
    "railway": "station",
    "train": "yes"
  }
},
{
  "type": "node",
  "id": 268588155,
  "lat": 56.1718602,
  "lon": 37.5092777,
  "tags": {
    "esr:user": "238103",
    "express:user": "2001077",
    "name": "Икша",
    "name:en": "Iksha",
    "operator": "ОАО «РЖД»",
    "operator:branch": "Московская железная дорога",
    "public_transport": "station",
    "railway": "station",
    "train": "yes",
    "uic_ref": "2001077",
    "wheelchair": "no",
    "wikidata": "Q4199125"
  }
},
{
  "type": "node",
  "id": 268920712,
  "lat": 57.8077382,
  "lon": 56.3780697,
  "tags": {
    "esr:user": "761706",
    "name": "Мулянка",
    "name:ru:word_stress": "Муля́нка",
    "network": "Свердловская железная дорога - филиал АО «РЖД»",
    "operator": "Свердловская дирекция управления движением АО «РЖД»",
    "public_transport": "station",
    "railway": "station",
    "train": "yes",
    "uic_ref": "2030024"
  }
},
{
  "type": "node",
  "id": 268933277,
  "lat": 59.3464798,
  "lon": 56.9335700,
  "tags": {
    "esr:user": "769203",
    "name": "Калийная",
    "network": "Свердловская железная дорога - филиал АО «РЖД»",
    "operator": "Свердловская дирекция управления движением АО «РЖД»",
    "public_transport": "station",
    "railway": "station",
    "train": "yes"
  }
},
{
  "type": "node",
  "id": 268937281,
  "lat": 59.0293424,
  "lon": 57.6653404,
  "tags": {
    "esr:user": "768315",
    "name": "Обогатитель",
    "network": "Свердловская железная дорога - филиал АО «РЖД»",
    "operator": "Свердловская дирекция управления движением АО «РЖД»",
    "public_transport": "station",
    "railway": "station",
    "train": "yes",
    "uic_ref": "2030491"
  }
},
{
  "type": "node",
  "id": 268940038,
  "lat": 58.5755707,
  "lon": 57.7582854,
  "tags": {
    "esr:user": "767609",
    "name": "Баская",
    "network": "Свердловская железная дорога - филиал АО «РЖД»",
    "operator": "Свердловская дирекция управления движением АО «РЖД»",
    "public_transport": "station",
    "railway": "station",
    "train": "yes",
    "uic_name": "Baskaya",
    "uic_ref": "2030082"
  }
},
{
  "type": "node",
  "id": 268940066,
  "lat": 58.5094266,
  "lon": 57.7405416,
  "tags": {
    "esr:user": "767524",
    "name": "Заготовка",
    "network": "Свердловская железная дорога - филиал АО «РЖД»",
    "operator": "Свердловская дирекция управления движением АО «РЖД»",
    "public_transport": "station",
    "railway": "station",
    "ref": "ЕСР 767524",
    "train": "yes",
    "uic_ref": "2030083"
  }
},
{
  "type": "node",
  "id": 268945644,
  "lat": 58.2541402,
  "lon": 57.6115898,
  "tags": {
    "esr:user": "766108",
    "name": "Калино",
    "public_transport": "station",
    "railway": "station",
    "train": "yes",
    "uic_ref": "2030102"
  }
},
{
  "type": "node",
  "id": 268947118,
  "lat": 55.4955214,
  "lon": 35.8609693,
  "tags": {
    "esr:user": "175807",
    "express:user": "2000827",
    "name": "Бородино",
    "name:be": "Барадiно",
    "name:en": "Borodino",
    "name:ru": "Бородино",
    "public_transport": "station",
    "railway": "station",
    "uic_ref": "2000827",
    "wikidata": "Q4094570"
  }
},
{
  "type": "node",
  "id": 268950036,
  "lat": 58.3534399,
  "lon": 59.5287879,
  "tags": {
    "esr:user": "772908",
    "name": "Азиатская",
    "network": "Свердловская железная дорога - филиал АО «РЖД»",
    "operator": "Свердловская железная дорога - филиал АО «РЖД»",
    "public_transport": "station",
    "railway": "station",
    "train": "yes",
    "uic_ref": "2030138"
  }
},
{
  "type": "node",
  "id": 268950100,
  "lat": 58.4557556,
  "lon": 59.2716067,
  "tags": {
    "esr:user": "766413",
    "name": "Европейская",
    "public_transport": "station",
    "railway": "station",
    "train": "yes",
    "uic_ref": "2030093"
  }
},
{
  "type": "node",
  "id": 268950339,
  "lat": 58.3620360,
  "lon": 57.9718451,
  "tags": {
    "esr:user": "767121",
    "name": "Скальный",
    "network": "Свердловская железная дорога - филиал АО «РЖД»",
    "operator": "Свердловская железная дорога - филиал АО «РЖД»",
    "railway": "station",
    "ref": "ЕСР 767121",
    "train": "yes",
    "uic_name": "Skalnij",
    "uic_ref": "2030496"
  }
},
{
  "type": "node",
  "id": 269972276,
  "lat": 44.1201963,
  "lon": 43.0768480,
  "tags": {
    "name": "Бештау",
    "public_transport": "station",
    "railway": "station",
    "uic_name": "Beschtau",
    "uic_ref": "2064151"
  }
},
{
  "type": "node",
  "id": 269972551,
  "lat": 44.6308098,
  "lon": 41.9636660,
  "tags": {
    "esr:user": "531304",
    "name": "Невинномысская",
    "network": "РЖД",
    "operator": "Северо-Кавказская железная дорога",
    "public_transport": "station",
    "railway": "station",
    "train": "yes",
    "uic_name": "Newinnomisskaja",
    "uic_ref": "2064220"
  }
},
{
  "type": "node",
  "id": 270332134,
  "lat": 56.0120839,
  "lon": 37.8394137,
  "tags": {
    "esr:user": "235904",
    "int_name": "Pushkino",
    "name": "Пушкино",
    "name:en": "Pushkino",
    "operator": "ОАО «РЖД»",
    "operator:branch": "Московская железная дорога",
    "public_transport": "station",
    "railway": "station",
    "train": "yes",
    "uic_name": "Pushkino 1",
    "uic_ref": "2000035",
    "wikidata": "Q4384761"
  }
},
{
  "type": "node",
  "id": 271790186,
  "lat": 55.2264239,
  "lon": 34.3202533,
  "tags": {
    "esr:user": "174109",
    "name": "Вязьма-Новоторжская",
    "name:en": "Vyazma-Novotorzhskaya",
    "operator": "ОАО «РЖД»",
    "operator:branch": "Московская железная дорога",
    "public_transport": "station",
    "railway": "station",
    "train": "yes",
    "uic_ref": "2001930",
    "wikidata": "Q109735433"
  }
},
{
  "type": "node",
  "id": 271834573,
  "lat": 54.9824691,
  "lon": 39.0418827,
  "tags": {
    "esr:user": "234206",
    "name": "Луховицы",
    "name:en": "Lukhovitsy",
    "network": "ОАО «РЖД»",
    "operator": "Московскя железная дорога",
    "public_transport": "station",
    "railway": "station",
    "uic_name": "Luhovicsy",
    "uic_ref": "2000060",
    "wikidata": "Q4269902"
  }
},
{
  "type": "node",
  "id": 271937477,
  "lat": 64.5735499,
  "lon": 39.8508553,
  "tags": {
    "name": "Северодвинск",
    "name:ja": "セヴェロドヴィンスク",
    "network": "РЖД",
    "operator": "Северная жеоезная дорога",
    "public_transport": "station",
    "railway": "station",
    "train": "yes",
    "uic_name": "Severodvinsk",
    "uic_ref": "2010320",
    "wheelchair": "yes"
  }
},
{
  "type": "node",
  "id": 272715670,
  "lat": 54.6826629,
  "lon": 31.0375406,
  "tags": {
    "esr:user": "171346",
    "name": "Красное",
    "name:be": "Краснае",
    "name:ru": "Красное",
    "public_transport": "station",
    "railway": "station",
    "uic_name": "Krasnoe(Smolensk)",
    "uic_ref": "2002119",
    "wikidata": "Q4238654"
  }
},
{
  "type": "node",
  "id": 272715705,
  "lat": 54.7250828,
  "lon": 31.3677752,
  "tags": {
    "esr:user": "171308",
    "name": "Гусино",
    "name:en": "Gusino",
    "public_transport": "station",
    "railway": "station",
    "uic_ref": "2000904",
    "wikidata": "Q99571642"
  }
},
{
  "type": "node",
  "id": 273196000,
  "lat": 56.3418508,
  "lon": 28.2484086,
  "tags": {
    "disused:public_transport": "station",
    "esr:user": "066120",
    "name": "Посинь",
    "operator:branch": "Октябрьская железная дорога",
    "railway": "station",
    "start_date": "1926",
    "train": "yes",
    "uic_ref": "2004516"
  }
},
{
  "type": "node",
  "id": 274602403,
  "lat": 55.5509632,
  "lon": 46.0503696,
  "tags": {
    "esr:user": "245227",
    "name": "Княжиха",
    "railway": "station",
    "uic_ref": "2060429"
  }
},
{
  "type": "node",
  "id": 274603664,
  "lat": 55.5329235,
  "lon": 45.7401019,
  "tags": {
    "esr:user": "245037",
    "name": "Андосово",
    "railway": "station",
    "uic_ref": "2061404"
  }
},
{
  "type": "node",
  "id": 274960681,
  "lat": 60.0189038,
  "lon": 30.6794272,
  "tags": {
    "esr:user": "036106",
    "name": "Мельничный Ручей",
    "operator:branch": "Октябрьская железная дорога",
    "public_transport": "station",
    "railway": "station",
    "train": "yes",
    "uic_ref": "2005050",
    "wikidata": "Q4290011",
    "wikipedia": "ru:Мельничный Ручей (станция)"
  }
},
{
  "type": "node",
  "id": 276586509,
  "lat": 54.9503738,
  "lon": 35.4704119,
  "tags": {
    "esr:user": "189320",
    "name": "Кошняки",
    "railway": "station",
    "uic_ref": "2000968"
  }
},
{
  "type": "node",
  "id": 276587192,
  "lat": 54.9883122,
  "lon": 35.3095301,
  "tags": {
    "esr:user": "189509",
    "name": "Износки",
    "operator": "РЖД",
    "railway": "station",
    "uic_ref": "2000364"
  }
},
{
  "type": "node",
  "id": 276614459,
  "lat": 55.9976240,
  "lon": 93.1094098,
  "tags": {
    "esr:user": "890201",
    "name": "Красноярск-Восточный",
    "name:en": "Krasnoyarsk East",
    "name:ru": "Красноярск-Восточный",
    "railway": "station"
  }
},
{
  "type": "node",
  "id": 276634883,
  "lat": 64.4714446,
  "lon": 34.7882706,
  "tags": {
    "esr:user": "012737",
    "name": "Шижня",
    "name:ru": "Шижня",
    "railway": "station",
    "uic_name": "Shijnya",
    "uic_ref": "2004363"
  }
},
{
  "type": "node",
  "id": 276634958,
  "lat": 64.3904151,
  "lon": 35.0060188,
  "tags": {
    "esr:user": "012722",
    "name": "Сухое",
    "name:ru": "Сухое",
    "railway": "station",
    "shelter": "yes",
    "uic_name": "Sukhoe",
    "uic_ref": "2004364"
  }
},
{
  "type": "node",
  "id": 276635071,
  "lat": 64.2475741,
  "lon": 35.3909389,
  "tags": {
    "esr:user": "012703",
    "name": "Сумский Посад",
    "name:ru": "Сумский Посад",
    "railway": "station",
    "uic_name": "Sumskij posad",
    "uic_ref": "2004703"
  }
},
{
  "type": "node",
  "id": 276635159,
  "lat": 64.1902419,
  "lon": 35.5546036,
  "tags": {
    "esr:user": "012629",
    "name": "Тегозеро",
    "railway": "station",
    "uic_name": "Tegozero",
    "uic_ref": "2004366"
  }
},
{
  "type": "node",
  "id": 276635224,
  "lat": 64.1183190,
  "lon": 35.7276142,
  "tags": {
    "esr:user": "012614",
    "name": "Колежма",
    "railway": "station",
    "uic_name": "Kolejma",
    "uic_ref": "2004367"
  }
},
{
  "type": "node",
  "id": 276635253,
  "lat": 64.0465135,
  "lon": 35.9181122,
  "tags": {
    "esr:user": "012633",
    "name": "Ухтица",
    "railway": "station",
    "uic_name": "Ukhticsa",
    "uic_ref": "2004368"
  }
},
{
  "type": "node",
  "id": 276635372,
  "lat": 63.9099297,
  "lon": 36.2574470,
  "tags": {
    "esr:user": "012544",
    "name": "Нюхча",
    "railway": "station",
    "uic_name": "Njukhcha",
    "uic_ref": "2004370"
  }
},
{
  "type": "node",
  "id": 276635434,
  "lat": 63.8542880,
  "lon": 36.4610012,
  "tags": {
    "esr:user": "012397",
    "name": "Маленьга",
    "railway": "station",
    "uic_name": "Malenga",
    "uic_ref": "2004371"
  }
},
{
  "type": "node",
  "id": 276635822,
  "lat": 63.7349415,
  "lon": 36.9154948,
  "tags": {
    "name": "Сулозеро",
    "railway": "station",
    "uic_name": "Sulozero",
    "uic_ref": "2010013"
  }
},
{
  "type": "node",
  "id": 276635873,
  "lat": 63.7243330,
  "lon": 37.0515096,
  "tags": {
    "name": "Куша",
    "railway": "station",
    "uic_name": "Kusha",
    "uic_ref": "2010014"
  }
},
{
  "type": "node",
  "id": 276635934,
  "lat": 63.7408610,
  "lon": 37.2936716,
  "tags": {
    "name": "Шунданец",
    "railway": "station",
    "uic_name": "Shundanecs",
    "uic_ref": "2010015"
  }
},
{
  "type": "node",
  "id": 276636652,
  "lat": 63.7078666,
  "lon": 37.6341039,
  "tags": {
    "esr:user": "295905",
    "name": "Нименга",
    "railway": "station",
    "uic_name": "Nimenga",
    "uic_ref": "2010016"
  }
},
{
  "type": "node",
  "id": 276636821,
  "lat": 63.7660443,
  "lon": 38.0824965,
  "tags": {
    "name": "Поньга",
    "railway": "station",
    "uic_name": "Ponga",
    "uic_ref": "2010017"
  }
},
{
  "type": "node",
  "id": 276636892,
  "lat": 63.8028673,
  "lon": 38.3547803,
  "tags": {
    "name": "Грибаниха",
    "network": "РЖД",
    "operator": "Севврная железная дорога",
    "public_transport": "station",
    "railway": "station",
    "train": "yes",
    "uic_name": "Gribanikha",
    "uic_ref": "2010018"
  }
},
{
  "type": "node",
  "id": 276636992,
  "lat": 63.8451494,
  "lon": 38.5374037,
  "tags": {
    "esr:user": "296039",
    "name": "Вонгуда",
    "name:ru": "Вонгуда",
    "railway": "station",
    "uic_name": "Vonguda",
    "uic_ref": "2010019"
  }
},
{
  "type": "node",
  "id": 276637095,
  "lat": 63.7891997,
  "lon": 39.0076306,
  "tags": {
    "esr:user": "296221",
    "name": "Глазаниха",
    "name:ru": "Глазаниха",
    "railway": "station",
    "uic_name": "Glazanikha",
    "uic_ref": "2010022"
  }
},
{
  "type": "node",
  "id": 276637156,
  "lat": 63.7766261,
  "lon": 39.2535214,
  "tags": {
    "esr:user": "296408",
    "name": "Мудьюга",
    "name:ru": "Мудьюга",
    "railway": "station",
    "uic_name": "Mudjuga",
    "uic_ref": "2010023"
  }
},
{
  "type": "node",
  "id": 276637307,
  "lat": 63.6045470,
  "lon": 39.9781886,
  "tags": {
    "esr:user": "295106",
    "name": "Большая Кяма",
    "name:ru": "Большая Кяма",
    "railway": "station",
    "uic_name": "Bolshaya kyama",
    "uic_ref": "2010026"
  }
},
{
  "type": "node",
  "id": 276637361,
  "lat": 63.5295863,
  "lon": 40.1149678,
  "tags": {
    "esr:user": "295021",
    "name": "Урамец",
    "name:ru": "Урамец",
    "railway": "station",
    "uic_ref": "2010027"
  }
},
{
  "type": "node",
  "id": 276637698,
  "lat": 63.9015447,
  "lon": 40.6484287,
  "tags": {
    "name": "Лиственничный",
    "network": "РЖД",
    "operator": "Северная железная дорога",
    "public_transport": "station",
    "railway": "station",
    "train": "yes",
    "uic_name": "Listvennichnij",
    "uic_ref": "2010007"
  }
},
{
  "type": "node",
  "id": 276637893,
  "lat": 64.2876236,
  "lon": 40.6514566,
  "tags": {
    "name": "Брусеница",
    "network": "РЖД",
    "operator": "Северная железная дорога",
    "public_transport": "station",
    "railway": "station",
    "train": "yes",
    "uic_name": "Brusenicsa",
    "uic_ref": "2010221"
  }
},
{
  "type": "node",
  "id": 276732361,
  "lat": 63.9448159,
  "lon": 34.2362185,
  "tags": {
    "esr:user": "011912",
    "name": "Шавань",
    "railway": "station",
    "uic_name": "Schawan",
    "uic_ref": "2005356"
  }
},
{
  "type": "node",
  "id": 276733626,
  "lat": 64.4311251,
  "lon": 34.4691524,
  "tags": {
    "esr:user": "012309",
    "name": "Сосновец",
    "name:ru": "Сосновец",
    "public_transport": "station",
    "railway": "station",
    "train": "yes",
    "uic_name": "Sosnowez",
    "uic_ref": "2004359"
  }
},
{
  "type": "node",
  "id": 276735030,
  "lat": 64.8630431,
  "lon": 34.6702302,
  "tags": {
    "esr:user": "013119",
    "name": "Мягрека",
    "name:ru": "Мягрека",
    "public_transport": "station",
    "railway": "station",
    "uic_ref": "2004373"
  }
},
{
  "type": "node",
  "id": 276738212,
  "lat": 65.3533689,
  "lon": 34.2656932,
  "tags": {
    "esr:user": "013509",
    "gns:dsg": "RSTN: railroad station",
    "gns:ufi": "-2942557",
    "name": "Кузема",
    "name:en": "Kuzema",
    "name:fi": "Kuusema",
    "name:krl": "Kuuzimua",
    "name:ru": "Кузема",
    "public_transport": "station",
    "railway": "station",
    "source": "NGA GNS",
    "uic_name": "Kusema",
    "uic_ref": "2004705"
  }
},
{
  "type": "node",
  "id": 276756095,
  "lat": 65.8976864,
  "lon": 33.7096462,
  "tags": {
    "esr:user": "013706",
    "name": "Амбарный",
    "name:fi": "Ambarnyi",
    "name:ru": "Амбарный",
    "public_transport": "stop_position",
    "railway": "station",
    "train": "yes",
    "uic_name": "Ambarnij",
    "uic_ref": "2004707"
  }
},
{
  "type": "node",
  "id": 276756570,
  "lat": 65.9625010,
  "lon": 33.3541670,
  "tags": {
    "esr:user": "013710",
    "name": "Боярская",
    "name:fi": "Kälkäjärvi",
    "name:ru": "Боярская",
    "railway": "station",
    "uic_name": "Bojarskaja",
    "uic_ref": "2004378"
  }
},
{
  "type": "node",
  "id": 276757167,
  "lat": 66.0753895,
  "lon": 33.0591445,
  "tags": {
    "name": "Лоухи",
    "name:fi": "Louhi",
    "name:ru": "Лоухи",
    "public_transport": "stop_position",
    "railway": "station",
    "train": "yes",
    "uic_name": "Louchi",
    "uic_ref": "2000913"
  }
},
{
  "type": "node",
  "id": 276758030,
  "lat": 66.1978404,
  "lon": 32.9011210,
  "tags": {
    "esr:user": "013829",
    "name": "Кереть",
    "name:fi": "Kieretin asema",
    "name:ru": "Кереть",
    "railway": "station",
    "uic_ref": "2004379"
  }
},
{
  "type": "node",
  "id": 276758443,
  "lat": 66.2663501,
  "lon": 32.9666766,
  "tags": {
    "esr:user": "014304",
    "name": "Чупа",
    "name:fi": "Tšuuppa",
    "name:ru": "Чупа",
    "public_transport": "stop_position",
    "railway": "station",
    "train": "yes",
    "uic_name": "Tschupa",
    "uic_ref": "2004709"
  }
},
{
  "type": "node",
  "id": 276759738,
  "lat": 66.4358380,
  "lon": 32.8504383,
  "tags": {
    "esr:user": "014338",
    "name": "Полярный Круг",
    "name:fi": "Napapiirin rautatieasema",
    "name:ru": "Полярный Круг",
    "public_transport": "stop_position",
    "railway": "station",
    "train": "yes",
    "uic_name": "Poljarnij Krug",
    "uic_ref": "2004711"
  }
},
{
  "type": "node",
  "id": 276764262,
  "lat": 67.0061016,
  "lon": 32.1922599,
  "tags": {
    "esr:user": "014450",
    "name": "Ручьи-Карельские",
    "railway": "station",
    "uic_name": "Ruchi-karelskie",
    "uic_ref": "2004382"
  }
},
{
  "type": "node",
  "id": 276765074,
  "lat": 67.0810171,
  "lon": 32.2662328,
  "tags": {
    "esr:user": "014802",
    "name": "Белое Море",
    "name:ru": "Белое Море",
    "railway": "station",
    "uic_name": "Beloe More",
    "uic_ref": "2004383"
  }
},
{
  "type": "node",
  "id": 276765907,
  "lat": 67.1467406,
  "lon": 32.2739096,
  "tags": {
    "name": "Проливы",
    "railway": "station"
  }
},
{
  "type": "node",
  "id": 276767255,
  "lat": 67.3171879,
  "lon": 32.4983375,
  "tags": {
    "esr:user": "015102",
    "name": "Пинозеро",
    "railway": "station",
    "uic_name": "Pinozero",
    "uic_ref": "2004384"
  }
},
{
  "type": "node",
  "id": 276768726,
  "lat": 67.4426760,
  "lon": 32.7781556,
  "tags": {
    "esr:user": "015608",
    "name": "Африканда",
    "name:en": "Afrikanda",
    "name:ru": "Африканда",
    "name:ru:word_stress": "Африка́нда",
    "public_transport": "stop_position",
    "railway": "station",
    "train": "yes",
    "uic_name": "Afrikanda",
    "uic_ref": "2004716"
  }
},
{
  "type": "node",
  "id": 277080936,
  "lat": 48.5277575,
  "lon": 134.9499613,
  "tags": {
    "name": "Пост Покровский",
    "public_transport": "station",
    "railway": "station"
  }
},
{
  "type": "node",
  "id": 277081849,
  "lat": 48.5232890,
  "lon": 134.9024777,
  "tags": {
    "name": "Приамурская",
    "network": "РЖД",
    "operator": "Дальневосточная железная дорога",
    "public_transport": "station",
    "railway": "station",
    "uic_name": "Priamurskaja",
    "uic_ref": "2034615"
  }
},
{
  "type": "node",
  "id": 277523022,
  "lat": 55.3566852,
  "lon": 37.5268085,
  "tags": {
    "esr:user": "190807",
    "express:user": "2000495",
    "name": "Гривно",
    "name:en": "Grivno",
    "operator": "ОАО «РЖД»",
    "operator:branch": "Московская железная дорога",
    "public_transport": "station",
    "railway": "station",
    "train": "yes",
    "uic_ref": "2000495",
    "wikidata": "Q4149000",
    "wikipedia": "ru:Гривно (станция)"
  }
},
{
  "type": "node",
  "id": 277544808,
  "lat": 55.6489403,
  "lon": 37.2695337,
  "tags": {
    "esr:user": "180608",
    "express:user": "2002950",
    "name": "Внуково",
    "name:en": "Vnukovo",
    "name:ru": "Внуково",
    "operator": "ОАО «РЖД»",
    "operator:branch": "Московская железная дорога",
    "public_transport": "station",
    "railway": "station",
    "train": "yes",
    "uic_ref": "2002950",
    "wikidata": "Q4113778",
    "wikipedia": "ru:Внуково (станция)"
  }
},
{
  "type": "node",
  "id": 277749365,
  "lat": 51.6886053,
  "lon": 107.4472536,
  "tags": {
    "name": "Саянтуй",
    "railway": "station",
    "uic_name": "Sayantuj",
    "uic_ref": "2054561"
  }
},
{
  "type": "node",
  "id": 277760519,
  "lat": 51.5306680,
  "lon": 107.0272030,
  "tags": {
    "esr:user": "936026",
    "name": "Оронгой",
    "name:en": "Orongoy",
    "name:ru": "Оронгой",
    "railway": "station",
    "uic_name": "Orongoj",
    "uic_ref": "2054839"
  }
},
{
  "type": "node",
  "id": 277761124,
  "lat": 56.3670759,
  "lon": 85.1471834,
  "tags": {
    "esr:user": "873808",
    "name": "Богашёво",
    "name:en": "Bogashyovo",
    "name:ru": "Богашёво",
    "public_transport": "stop_position",
    "railway": "station",
    "train": "yes",
    "uic_ref": "2028008"
  }
},
{
  "type": "node",
  "id": 277946966,
  "lat": 58.6061264,
  "lon": 49.6436920,
  "tags": {
    "description": "Станция 1 класса Кировского региона Горьковской железной дороги - филиала ОАО \"РЖД\". Ордината оси КМ006.200. Открыта в 1899 году.",
    "esr:user": "270306",
    "name": "Киров-Котласский",
    "network": "Горьковская железная дорога - филиал ОАО \"РЖД\"",
    "operator": "Горьковская дирекция управления движением РЖД",
    "public_transport": "station",
    "railway": "station",
    "uic_name": "Kirov-Kotlasskij",
    "uic_ref": "2060006",
    "wikidata": "Q4221530"
  }
},
{
  "type": "node",
  "id": 278013096,
  "lat": 55.6170318,
  "lon": 84.2232151,
  "tags": {
    "name": "Чахлово",
    "name:en": "Chakhlovo",
    "railway": "station"
  }
},
{
  "type": "node",
  "id": 278013686,
  "lat": 55.2110777,
  "lon": 83.3241025,
  "tags": {
    "esr:user": "851809",
    "name": "Сокур",
    "name:en": "Sokur",
    "name:ru": "Сокур",
    "railway": "station",
    "uic_ref": "2044775"
  }
},
{
  "type": "node",
  "id": 278015086,
  "lat": 55.3571519,
  "lon": 77.4749688,
  "tags": {
    "name": "Тебисская",
    "name:en": "Tebisskaya",
    "public_transport": "station",
    "railway": "station",
    "uic_name": "Tebisskaja",
    "uic_ref": "2044759"
  }
},
{
  "type": "node",
  "id": 278101532,
  "lat": 55.8290609,
  "lon": 93.4858335,
  "tags": {
    "name": "Таёжный",
    "name:ja": "タヨージヌイ",
    "public_transport": "stop_position",
    "railway": "station",
    "train": "yes"
  }
},
{
  "type": "node",
  "id": 278117289,
  "lat": 58.6397599,
  "lon": 49.7325264,
  "tags": {
    "description": "Станция 4 класса Кировского региона Горьковской железной дороги - филиала АО «РЖД». Ордината оси КМ043.200. Открыта в 1915 году. Производятся только грузовые операции. Пассажирского движения нет.",
    "esr:user": "271309",
    "name": "Долгушино",
    "network": "Горьковская железная дорога - филиал АО «РЖД»",
    "operator": "Горьковская дирекция управления движением РЖД",
    "public_transport": "station",
    "railway": "station",
    "train": "yes",
    "uic_ref": "2060064"
  }
},
{
  "type": "node",
  "id": 278216405,
  "lat": 61.8615667,
  "lon": 64.7834138,
  "tags": {
    "esr:user": "779019",
    "name": "Пантынг",
    "operator": "РЖД",
    "public_transport": "station",
    "railway": "station",
    "uic_ref": "2030527"
  }
},
{
  "type": "node",
  "id": 278217789,
  "lat": 61.3087954,
  "lon": 63.3289142,
  "tags": {
    "esr:user": "778406",
    "fixme": "esr:user supposed",
    "name": "Геологическая",
    "operator": "РЖД",
    "public_transport": "station",
    "railway": "station",
    "uic_name": "Geologicheskaya(2)",
    "uic_ref": "2030166"
  }
},
{
  "type": "node",
  "id": 278220617,
  "lat": 62.1355856,
  "lon": 65.3865599,
  "tags": {
    "esr:user": "779201",
    "name": "Нягань",
    "name:en": "Nyagan",
    "name:ja": "ニャーガニ",
    "name:ru": "Нягань",
    "public_transport": "station",
    "railway": "station",
    "uic_name": "Nyagan",
    "uic_ref": "2030526"
  }
},
{
  "type": "node",
  "id": 278450462,
  "lat": 54.6196056,
  "lon": 128.5404316,
  "tags": {
    "name": "Верхнезейск",
    "network": "РЖД",
    "operator": "Дальневостчоная железная дорога",
    "public_transport": "station",
    "railway": "station",
    "uic_name": "Verkhnezejsk",
    "uic_ref": "2048130"
  }
},
{
  "type": "node",
  "id": 279104506,
  "lat": 54.7830874,
  "lon": 61.2445179,
  "tags": {
    "int_name": "Emanzhelinsk",
    "name": "Еманжелинск",
    "name:ar": "يمنجلنسك",
    "name:be": "Еманжалінск",
    "name:bg": "Еманжелинск",
    "name:ca": "Iemanjelinsk",
    "name:ceb": "Yemanzhelinsk",
    "name:cs": "Jemanželinsk",
    "name:de": "Jemanschelinsk",
    "name:en": "Yemanzhelinsk",
    "name:eo": "Jemanĵelinsk",
    "name:es": "Yemanzhelinsk",
    "name:fa": "یمانژلینسک",
    "name:fi": "Jemanželinsk",
    "name:fr": "Iemanjelinsk",
    "name:gl": "Emanzhelinsk",
    "name:hsb": "Jemanželinsk",
    "name:it": "Emanželinsk",
    "name:ja": "エマンジェリンスク",
    "name:ka": "ემანჟელინსკი",
    "name:mwl": "Yemanjelinsk",
    "name:nn": "Jemanzjelinsk",
    "name:ru": "Еманжелинск",
    "name:ru:word_stress": "Еманжели́нск",
    "name:sr": "Јеманжелинск",
    "name:tg": "Еманжелинск",
    "name:tl": "Yemanzhelinsk",
    "name:tt": "Яманъелга",
    "name:uk": "Єманжелінськ",
    "name:war": "Yemanzhelinsk",
    "name:zh": "葉曼熱林斯克",
    "public_transport": "station",
    "railway": "station",
    "train": "yes",
    "uic_name": "Emanshelinsk",
    "uic_ref": "2040416",
    "wikidata": "Q4175353",
    "wikipedia": "ru:Еманжелинск (станция)"
  }
},
{
  "type": "node",
  "id": 279285518,
  "lat": 55.1838524,
  "lon": 61.6210916,
  "tags": {
    "int_name": "Potanino",
    "name": "Потанино",
    "name:en": "Potanino",
    "name:ja": "ポターニノ",
    "name:ru": "Потанино",
    "name:ru:word_stress": "Пота́нино",
    "railway": "station",
    "uic_ref": "2040472",
    "wikipedia": "ru:Потанино (станция)"
  }
},
{
  "type": "node",
  "id": 279559681,
  "lat": 54.9643598,
  "lon": 83.1196256,
  "tags": {
    "name": "Инская",
    "name:en": "Inskaya",
    "railway": "station",
    "uic_name": "Inskaja",
    "uic_ref": "2044776"
  }
},
{
  "type": "node",
  "id": 279633673,
  "lat": 43.3798110,
  "lon": 132.1912051,
  "tags": {
    "name": "Артём-Приморский 1",
    "name:en": "Artyom-Primorsky 1",
    "public_transport": "station",
    "railway": "station",
    "train": "yes",
    "uic_ref": "2034707",
    "wikidata": "Q110189228"
  }
},
{
  "type": "node",
  "id": 279636631,
  "lat": 60.9617562,
  "lon": 29.2450409,
  "tags": {
    "esr:user": "022508",
    "name": "Боровинка",
    "operator:branch": "Октябрьская железная дорога",
    "public_transport": "station",
    "railway": "station",
    "train": "yes",
    "uic_ref": "2004736",
    "wikidata": "Q25394799",
    "wikipedia": "ru:Боровинка (станция)"
  }
},
{
  "type": "node",
  "id": 279731812,
  "lat": 44.1428508,
  "lon": 39.1766560,
  "tags": {
    "esr:user": "533704",
    "name": "Греческий",
    "network": "РЖД",
    "operator": "Северо-Кавказская железная дорога",
    "public_transport": "station",
    "railway": "station",
    "train": "yes",
    "uic_ref": "2064198"
  }
},
{
  "type": "node",
  "id": 279732099,
  "lat": 44.2849177,
  "lon": 39.2243470,
  "tags": {
    "name": "Чилипси",
    "public_transport": "stop_position",
    "railway": "station",
    "train": "yes",
    "uic_ref": "2064624"
  }
},
{
  "type": "node",
  "id": 279978399,
  "lat": 56.4413720,
  "lon": 102.2509020,
  "tags": {
    "name": "Пашенный",
    "railway": "station",
    "uic_name": "Paschennij",
    "uic_ref": "2054774"
  }
},
{
  "type": "node",
  "id": 280072676,
  "lat": 56.7687076,
  "lon": 124.8004521,
  "tags": {
    "esr:user": "913507",
    "name": "Денисовский",
    "public_transport": "station",
    "railway": "station",
    "uic_name": "Denisovskij",
    "uic_ref": "2006082"
  }
},
{
  "type": "node",
  "id": 280080088,
  "lat": 58.9675134,
  "lon": 126.2266838,
  "tags": {
    "esr:user": "914209",
    "name": "Томмот",
    "name:ja": "トンモト",
    "public_transport": "station",
    "railway": "station",
    "uic_name": "Tommot",
    "uic_ref": "2006057"
  }
},
{
  "type": "node",
  "id": 280268205,
  "lat": 52.5355498,
  "lon": 85.1798166,
  "tags": {
    "esr:user": "843200",
    "name": "Бийск",
    "name:en": "Biysk",
    "name:ja": "ビイスク",
    "name:ru": "Бийск",
    "public_transport": "station",
    "railway": "station",
    "uic_name": "Bijsk",
    "uic_ref": "2044720"
  }
},
{
  "type": "node",
  "id": 280268385,
  "lat": 52.7964137,
  "lon": 84.8146781,
  "tags": {
    "name": "Буланиха",
    "name:en": "Bulanikha",
    "public_transport": "station",
    "railway": "station",
    "uic_name": "Bulanikha",
    "uic_ref": "2044811"
  }
},
{
  "type": "node",
  "id": 280269130,
  "lat": 53.8679761,
  "lon": 83.4855307,
  "tags": {
    "name": "Красный Боец",
    "name:en": "Krasnyi Boyets",
    "public_transport": "station",
    "railway": "station",
    "uic_ref": "2044939"
  }
},
{
  "type": "node",
  "id": 280269584,
  "lat": 54.5108510,
  "lon": 83.3504729,
  "tags": {
    "name": "Евсино",
    "name:en": "Yevsino",
    "public_transport": "station",
    "railway": "station",
    "uic_ref": "2044792"
  }
},
{
  "type": "node",
  "id": 280312178,
  "lat": 56.8625276,
  "lon": 60.3716290,
  "tags": {
    "esr:user": "780016",
    "name": "Перегон",
    "network": "Свердловская железная дорога - филиал АО «РЖД»",
    "operator": "Свердловская дирекция управления движением АО «РЖД»",
    "public_transport": "station",
    "railway": "station",
    "train": "yes",
    "uic_ref": "2030467"
  }
},
{
  "type": "node",
  "id": 280365392,
  "lat": 57.1278588,
  "lon": 35.4190907,
  "tags": {
    "esr:user": "062115",
    "name": "Виноколы",
    "operator:branch": "Октябрьская железная дорога",
    "public_transport": "station",
    "railway": "station",
    "train": "yes",
    "uic_ref": "2006005",
    "wikidata": "Q110219692"
  }
},